_id,permit_number,s_name,s_address,city,z_code,p_fee,pa_license_no,contractor_name,permit_specifications,square_feet,is_the_building_occupied,i_date,e_date,achd_inspector,job_complete,is_permit_date_extended,permit_o_e_date,project_type,status,latitude,longitude
1751919,DEM190077,RESIDENCE,516  ROMINE AVE,MCKEESPORT,15132,0,941,"PRISM RESPONSE, LLC DBA ALLOY",DEMOLISH THE STRUCTURE AND GRADE THE LOT,1000,f,2019-03-25,2019-05-06,MARC ITKIN,t,f,2019-05-06,DEM,COMPLETE,40.3498885196477,-79.8722377193532
1751920,DEM190078,RESIDENCE,718  REYNOLDS ST,MCKEESPORT,15132,0,941,"PRISM RESPONSE, LLC DBA ALLOY",DEMOLISH THE STRUCTURE AND GRADE THE LOT,1000,f,2019-03-25,2019-05-06,MARC ITKIN,t,f,2019-05-06,DEM,COMPLETE,40.3456385026226,-79.8789706343417
1751921,DEM190085,RESIDENCE,226  REBECCA ST,MCKEESPORT,15132,0,941,"PRISM RESPONSE, LLC DBA ALLOY",DEMOLISH THE STRUCTURE AND GRADE THE LOT,1000,f,2019-04-01,2019-05-10,MARC ITKIN,t,f,2019-05-10,DEM,COMPLETE,40.3525480310838,-79.8739145294898
1751922,PAA170533,7053 MONTICELLO STREET,,PITTSBURGH,15219,850,920,GENERAL CONTRACTING CORP. OF AMERICA,DEMOLISH THE STRUCTURE AND GRADE THE LOT,1200,f,2017-10-04,2017-11-15,JOE YAKUBISIN,t,f,2017-11-15,PAA,COMPLETE,40.4430363971525,-80.0248548874816
1751923,PAA170627,102 CRAWFORD RUN ROAD; CREIGHTON ; PA 15030,100  CRAWFORD RUN RD,,15030,850,920,GENERAL CONTRACTING CORP. OF AMERICA,DEMOLISH THE STRUCTURE AND GRADE THE LOT,2100,f,2017-11-22,2017-12-18,SHANNON SANDBERG,t,f,2017-12-18,PAA,COMPLETE,40.5846805181744,-79.7853459086525
1751924,DEM210149,RESIDENTIAL,102 N 2ND ST,DUQUESNE,15110,0,911,"MASA, LLC DBA CANFIELD DEVELOPMENT",DEMOLITION OF FACILITY USING HEAVY EQUIPMENT; WETTING MATERIALS AS NEEDED,,f,2021-09-27,2021-11-30,ELIZABETH LETURGEY,t,f,2021-11-30,DEM,COMPLETE,40.3752031045463,-79.848452696563
1751925,DEM210150,RESIDENTIAL,321 S 2ND ST,DUQUESNE,15110,0,911,"MASA, LLC DBA CANFIELD DEVELOPMENT",DEMOLITION OF FACILITY USING HEAVY EQUIPMENT; WETTING MATERIALS AS NEEDED,,f,2021-10-05,2021-10-15,ELIZABETH LETURGEY,t,f,2021-10-15,DEM,COMPLETE,40.3693513265588,-79.8451831760901
1751926,PAA170657,409 FANNELL ST - PITTSBURGH; PA 15224,,PITTSBURGH,15224,850,926,"KANE SPECIALTY GROUP, LLC",DEMOLITION ORDERED BY THE CITY OF PITTSBURGH - ALL MATERIAL TREATED AS ACM,,f,2017-11-28,2017-12-21,JOE YAKUBISIN,t,f,2017-12-21,PAA,COMPLETE,40.4612562017017,-79.960276187112
1751927,PAA160582,TWO PNC PLAZA,620  LIBERTY AVE,PITTSBURGH,15222,650,928,NORTHSTAR CONTRACTING GROUP INC,MASTIC ON FLOORS 3;4;5;6;7;8;26 AND 29,8000,t,2017-01-09,2017-12-31,DON HORGAN,t,f,2017-12-31,PAA,COMPLETE,40.4418188313799,-80.0008354490418
1751928,PAA140422,SOUTHLAND SHOPPING CENTER - UNIT 47,645 CLAIRTON BLVD,PITTSBURGH,15236,650,902,"AMERICAN CONTRACTING ENTERPRISES, INC.",MASTIC THROUGHOUT BUILDING,3000,f,2014-10-27,2014-11-30,JOE YAKUBISIN,t,f,2014-11-30,PAA,COMPLETE,40.3306681811055,-79.9441724497452
1751929,PAA150155,WENDY'S,345 5TH AVE,PITTSBURGH,15222,650,901,"ABMECH ACQUISITIONS, LLC",MIRROR MASTIC ON 1ST AND 2ND FLOORS;WINDOW CAULKING ON 3RD FLOOR;ELEVATOR DOORS IN BASEMENT THRU 2ND FLOORS AND CAPSTONE MASTIC ON ROOF,4725,f,2015-04-01,2015-12-31,JOE YAKUBISIN,t,f,2015-12-31,PAA,COMPLETE,40.4402296734097,-79.998987954627
1751930,PAA150154,SAKS,350 OLIVER AVE,PITTSBURGH,15222,650,901,"ABMECH ACQUISITIONS, LLC",MIRROR MASTIC;PIPEINSULATION;FLOOR TILE/MASTIC;ELEVATOR DOORS IN BASEMENT THRU 3RD FLOOR;GASKETING IN BASEMENT THRU PENTHOUSE AND WINDOW CAULKING ON ROOF PENTHOUSE,73330,f,2015-04-01,2015-12-31,JOE YAKUBISIN,t,f,2015-12-31,PAA,COMPLETE,40.4408035304267,-79.9986280235905
1751931,PAA140429,UPMC SHADYSIDE,5230 CENTRE AVE.,PITTSBURGH,15232,150,905,"BLT CONTRACTING, INC.",MRI-LOW ROOF,250,t,2014-10-31,2015-10-31,JOE YAKUBISIN,t,f,2015-10-31,PAA,COMPLETE,40.4546642584153,-79.9395872787866
1751932,PAA190194,PITTSBURGH MINADEO PRE K-5,6502 LILAC ST,PITTSBURGH,15217,850,921,GRAY WASTE MANAGEMENT CORPORATION,MULTIPLE MATERIALS IN MULTIPLE AREAS - SEE ATTACHED,1041,t,2019-04-16,2020-04-15,JOE YAKUBISIN,t,f,2020-04-15,PAA,COMPLETE,40.4234265447863,-79.9257203177536
1751933,UND220058,WILLIAM S MOOREHEAD FEDERAL BUILDING,1000  LIBERTY AVE,PITTSBURGH,15222,0,,,REMOVAL OF ELEVATOR BRAKE SHOE BY NEUMEYER ENVIRONMENTAL,10,t,2022-08-18,2022-08-19,CALI FEENEY,f,f,2022-08-19,UND,COMPLETE,40.4434190143884,-79.9946158625346
1751934,DEM220290,CITY OF PITTSBURGH REGULATED PROPERTY,633  HOLLACE ST,PITTSBURGH,15219,0,,,REMOVAL OF EXTERIOR DOOR & WINDOW CAULK,18,f,2022-12-02,2023-03-02,CALI FEENEY,f,f,2023-03-02,DEM,COMPLETE,40.4507097667443,-79.9680900344894
1751935,DEM220289,RESIDENTIAL STRUCTURE,926  TYSON ST,PITTSBURGH,15208,0,,,REMOVAL OF EXTERIOR DOOR & WINDOW CAULK AND BASEMENT FLOOR TILE BY UNIS DEMOLITION,63,f,2022-12-02,2023-03-02,CALI FEENEY,f,f,2023-03-02,DEM,COMPLETE,40.4557961873196,-79.8851736828086
1751936,DEM190065,RESIDENCE,217  ERIE ST,MCKEESPORT,15132,0,941,"PRISM RESPONSE, LLC DBA ALLOY",DEMOLISH THE STRUCTURE AND GRADE THE LOT,800,f,2019-03-18,2019-04-29,MARC ITKIN,t,f,2019-04-29,DEM,COMPLETE,40.3525260136334,-79.8750865472735
1751937,DEM190072,RESIDENCE - 352 28TH STREET,,MCKEESPORT,15132,0,941,"PRISM RESPONSE, LLC DBA ALLOY",DEMOLISH THE STRUCTURE AND GRADE THE LOT,700,f,2019-04-01,2019-05-10,MARC ITKIN,t,f,2019-05-10,DEM,COMPLETE,40.3461769656623,-79.8821441090236
1751938,DEM190073,RESIDENCE,429  26TH ST,MCKEESPORT,15132,0,941,"PRISM RESPONSE, LLC DBA ALLOY",DEMOLISH THE STRUCTURE AND GRADE THE LOT,800,f,2019-04-01,2019-05-10,MARC ITKIN,t,f,2019-05-10,DEM,COMPLETE,40.3357499656423,-79.8465804621646
1751939,DEM190081,RESIDENCE,213  PACIFIC AVE,MCKEESPORT,15132,0,941,"PRISM RESPONSE, LLC DBA ALLOY",DEMOLISH THE STRUCTURE AND GRADE THE LOT,700,f,2019-03-25,2019-05-06,MARC ITKIN,t,f,2019-05-06,DEM,COMPLETE,40.350903314114,-79.8738785387036
1751940,DEM190082,RESIDENCE,501  MONTEREY ST,MCKEESPORT,15132,0,941,"PRISM RESPONSE, LLC DBA ALLOY",DEMOLISH THE STRUCTURE AND GRADE THE LOT,1000,f,2019-03-25,2019-05-06,MARC ITKIN,t,f,2019-05-06,DEM,COMPLETE,40.3479255531388,-79.8772892436179
1751941,PAA170611,1300 N. MURTLAND  AVE,1300 N MURTLAND ST,PITTSBURGH,15208,850,920,GENERAL CONTRACTING CORP. OF AMERICA,DEMOLISH THE STRUCTURE AND GRADE THE LOT,1725,f,2017-11-16,2017-11-30,SHANNON SANDBERG,t,f,2017-11-30,PAA,COMPLETE,40.4619375261537,-79.8997563322393
1751942,DEM200046,MARY S BROWN-AMES UNITED METHODIST CHURCH,3424 BEECHWOOD BLVD,PITTSBURGH,15217,0,920,GENERAL CONTRACTING CORP. OF AMERICA,DEMOLISH THE STRUCTURE AND GRADE THE LOT - ACM ABATED UNDER PERMIT NUMBER PAA19-0659,,f,2020-03-14,2020-04-24,ELIZABETH LETURGEY,t,f,2020-04-24,DEM,COMPLETE,40.4205902568704,-79.9270503170268
1751943,PAA170652,5124 LYTLE STREET - PITTSBURGH; PA 15207,5124 LYTLE ST,PITTSBURGH,15207,850,920,GENERAL CONTRACTING CORP. OF AMERICA,DEMOLISH THE STRUCTURE AND GRADE THE LOT - ALL MATERIAL TREATED AS ACM,784,f,2017-12-07,2017-12-17,JOE YAKUBISIN,t,f,2017-12-17,PAA,COMPLETE,40.4058544974844,-79.9451357285146
1751944,PAA170653,217 LAYFAYETTE AVENUE - PITTSBURGH; PA 15214,217  LAFAYETTE AVE,PITTSBURGH,15214,850,920,GENERAL CONTRACTING CORP. OF AMERICA,DEMOLISH THE STRUCTURE AND GRADE THE LOT - ALL MATERIAL TREATED AS ACM,1432,f,2017-12-07,2017-12-17,JOE YAKUBISIN,t,f,2017-12-17,PAA,COMPLETE,40.4652200488353,-80.0093905348287
1751945,PAA150044,CITIZEN'S BANK - OAKMONT BRANCH,524 ALLEGHENY RIVER BLVD.,OAKMONT,15139,350,908,"BRISTOL ENVIRONMENTAL, INC.",DRYWALL COMPOUND AND CARPET MASTIC ON MAIN FLOOR,582,t,2015-02-02,2015-04-17,JOE YAKUBISIN,t,f,2015-02-28,PAA,COMPLETE,40.5184157259331,-79.8424378109546
1751946,PAA150043,CITIZEN'S BANK - HAMPTON BRANCH,4761 ROUTE 8,ALLISON PARK,15101,150,908,"BRISTOL ENVIRONMENTAL, INC.",DRYWALL COMPOUND ON MAIN FLOOR,192,t,2015-02-02,2015-02-28,JOE YAKUBISIN,t,f,2015-02-28,PAA,COMPLETE,40.5955447376108,-79.9481738331821
1751947,PAA170041,,1256  HAMILTON RD,CASTLE SHANNON,15234,650,911,"MASA, LLC DBA CANFIELD DEVELOPMENT",DRYWALL JOINT COMPOUND ON 2ND FLOOR BEDROOM/STAIRWELL,2000,f,2017-01-16,2017-03-31,JOE YAKUBISIN,t,f,2017-03-31,PAA,COMPLETE,40.3643566390639,-80.0168534788731
1751948,PAA150058,,4800 - 4818 PENN AVE.,PITTSBURGH,15219,650,941,"PRISM RESPONSE, LLC DBA ALLOY",FLOOR TILE/MASTIC IN 3 APARTMENTS;ROOF AND WINDOW CAULKING,18210,f,2015-01-28,2015-02-28,JOE YAKUBISIN,t,f,2015-02-28,PAA,COMPLETE,,
1751949,PAA150377,MSA - EVERGREEN HEIGHTS,115 EVERGREEN HEIGHTS,PITTSBURGH,15229,350,941,"PRISM RESPONSE, LLC DBA ALLOY",FLOOR TILE/MASTIC IN 4TH FLOOR RESTROOM AREA,800,t,2015-08-01,2015-08-30,JOE YAKUBISIN,t,f,2015-08-30,PAA,COMPLETE,40.5184475243026,-80.0151301299441
1751950,PAA150323,SAINT LOUISE DE MARILLAC,310 MCMURRAY ROAD,PITTSBURGH,15241,650,941,"PRISM RESPONSE, LLC DBA ALLOY",FLOOR TILE/MASTIC IN ADMIN.OFFICES;GYM ENTRANCE;MEN/WOMEN ROOMS AND CONCESSION STAND,3100,t,2015-06-29,2015-07-10,DON HORGAN,t,f,2015-07-10,PAA,COMPLETE,40.3169401563001,-80.0722394137689
1751951,PAA160421,ALLEGHENY COUNTY HOUSING AUTHORITY,314  COMMERCE ST,WILMERDING,15148,650,911,"MASA, LLC DBA CANFIELD DEVELOPMENT",FLOOR TILE/MASTIC IN APTS 1-A;1-J AND PIPE INSULATION IN APT 1-J,1070,f,2016-09-19,2016-10-01,JOE YAKUBISIN,t,f,2016-10-01,PAA,COMPLETE,40.3929268069841,-79.8077211724676
1751952,PAA160265,CHARTIERS VALLEY HIGH SCHOOL,50 THOMS RUN RD,BRIDGEVILLE,15017,650,931,PHASE ONE DEVELOPMENT CORPORATION,FLOOR TILE/MASTIC IN AUDITORIUM,6800,t,2016-06-13,2017-06-13,JOE YAKUBISIN,t,f,2017-06-13,PAA,COMPLETE,40.378788791577,-80.1025406961975
1751953,PAA150532,ACHD - LAWRENCEVILLE;BUILDING 7,3901 PENN AVE,PITTSBURGH,15224,650,931,PHASE ONE DEVELOPMENT CORPORATION,FLOOR TILE/MASTIC IN BASEMENT AND 1ST FLOOR,2640,t,2015-11-17,2016-11-17,JOE YAKUBISIN,t,f,2016-11-17,PAA,COMPLETE,40.465556298995,-79.9602944506386
1751954,PAA170299,504 NORMAN STREET,504  NORMAN ST,PITTSBURGH,15214,850,921,GRAY WASTE MANAGEMENT CORPORATION,REMOVAL AND DISPOSAL OF EXTERIOR SIDING AND ROOFING MATERIAL,1500,f,2017-06-09,2017-12-31,JOE YAKUBISIN,t,f,2017-12-31,PAA,COMPLETE,40.4623861297751,-80.0141532706389
1751955,PAA170311,LANGLEY K-8 SCHOOL,2940 SHERADEN BLVD,PITTSBURGH,15204,850,903,"AMERICAN INDUSTRIAL CONTRACTING, INC.",REMOVAL OF ACM FLOOR TILE/MASTIC; TERRAZO FLOORING; CARPET/ACM MASTIC; CEILING TILE/ACM MASTIC; PIPE/FITTING INSULATION IN VARIOUS LOCATIONS,18000,t,2017-06-14,2017-08-09,JOE YAKUBISIN,t,f,2017-08-09,PAA,COMPLETE,40.4545398606462,-80.0546727557361
1751956,RES220067,RESIDENCE,1117  WOODLAND AVE,PORT VUE,15133,0,,,REMOVAL OF ATTIC LINOLEUM BY AMERICAN CONTRACTING ENTERPRISES,80,t,2022-08-08,2022-11-25,CALI FEENEY,f,f,2022-11-25,RES,COMPLETE,40.3363050447368,-79.879406874827
1751957,UND220069,WESTINGHOUSE LODGE,700  BARCLAY AVE,FOREST HILLS,15221,0,,,REMOVAL OF BASEMENT BACK CLOSET BOILER PIPE INSULATION,40,t,2022-09-10,2022-09-17,NICHOLAS DELPHIA,f,f,2022-09-17,UND,COMPLETE,40.4182299898465,-79.8418033981906
1751958,DEM220208,CITY OF PITTSBURGH REGULATED PROPERTY,2703  ELLIS ST,PITTSBURGH,15214,0,,,REMOVAL OF BASEMENT DUCT TAPE,5,f,2022-10-05,2022-12-21,NICHOLAS DELPHIA,f,f,2022-12-21,DEM,COMPLETE,40.4726337833559,-80.0113402316025
1751959,UND220086,CITY OF MCKEESPORT REGULATED PROPERTY,220  EXPRESS ALY,MCKEESPORT,15132,0,,,REMOVAL OF BASEMENT DUCT WRAP BY TRIFECTA,150,f,2022-10-24,2023-10-31,CALI FEENEY,f,f,2023-10-31,UND,COMPLETE,40.3525421196311,-79.8744091652467
1751960,RES220076,RESIDENCE,1358  HAWTHORNE ST,PITTSBURGH,15201,0,,,REMOVAL OF BASEMENT FLOOR TILE & MASTIC BY AMERICAN CONTRACTING ENTERPRISES; INC,690,t,2022-08-29,2022-12-31,KIMBERLY CAMPBELL,f,f,2022-12-31,RES,COMPLETE,40.4827288850912,-79.9358390084655
1751961,RES220066,RESIDENCE,328  CANTERBURY DR,PITTSBURGH,15238,0,,,REMOVAL OF BASEMENT HVAC DUCT WRAP & BASEMENT FLOOR TILE BY HEALTHY ENVIRONMENTS,440,t,2022-08-09,2022-08-10,KIMBERLY CAMPBELL,f,f,2022-08-10,RES,COMPLETE,40.493642670463,-79.875216309052
1751962,UND220078,CITY OF MCKEESPORT REGULATED PROPERTY,1303  PATTERSON AVE,MCKEESPORT,15132,0,,,REMOVAL OF BASEMENT STAIRS INSULATION BY TRIFECTA,3,f,2022-10-24,2023-10-31,DANIEL ZOLDOS,f,f,2023-10-31,UND,COMPLETE,40.3442797907987,-79.8373723862379
1751963,UND220079,700-702 MCINTOSH ROAD - CITY OF MCKEESPORT REGULATED PROPERTY,700  MCINTOSH RD,MCKEESPORT,15132,0,,,REMOVAL OF BASEMENT WHITE DUCT TAP AND EXTERIOR CHIMNEY TAR BY TRIFECTA,45,f,2022-10-24,2023-10-31,DANIEL ZOLDOS,f,f,2023-10-31,UND,COMPLETE,40.3233476501721,-79.8242515446222
1751964,DEM220205,CITY OF PITTSBURGH REGULATED PROPERTY,618  EXCELSIOR ST,PITTSBURGH,15210,0,,,REMOVAL OF EXTERIOR WINDOW CAULKING AND ENTRY HALL PIPE WRAP BY SUPERIOR ENVIRONMENTAL CONTRACTING,125,f,2022-09-29,2022-12-29,CALI FEENEY,f,f,2022-12-29,DEM,COMPLETE,40.4225970716734,-79.9965733495847
1751965,RES220073,RESIDENCE,398  WOODCLIFF CIR,SCOTT,15243,0,,,REMOVAL OF FLOOR TILE & MASTIC BY AMERICAN CONTRACTING ENTERPRISES; INC,270,f,2022-08-26,2022-12-02,NICHOLAS DELPHIA,f,f,2022-12-02,RES,COMPLETE,40.3657259197112,-80.0879515532402
1751966,PAA170304,UPMC MERCY HOSPITAL,1400 LOCUST ST,PITTSBURGH,15219,400,940,"SPECTRUM ENVIRONMENTAL, LLC",REMOVAL OF FLOOR TILE & MASTIC IN THE 3RD FLOOR MRI WING HALLWAY EAST,300000,t,2017-06-02,2017-12-30,JOE YAKUBISIN,t,f,2017-12-30,PAA,COMPLETE,40.4360439740714,-79.9854587006851
1751967,PAA170280,UNIVERSITY OF PITTSBURGH P0SVAR HALL 4TH FLOOR,230 S BOUQUET ST,PITTSBURGH,15213,250,940,"SPECTRUM ENVIRONMENTAL, LLC",REMOVAL OF FLOOR TILE & MASTIC IN THE 4TH FLOOR BEHAVIOR LAB & CUE SCHOOL OF EDU.,300000,t,2017-05-26,2017-12-31,JOE YAKUBISIN,t,f,2017-12-31,PAA,COMPLETE,40.4412696613065,-79.9544987907977
1751968,PAA170314,UNIVERISTY OF PITTSBURGH POSVAR HALL,230 S BOUQUET ST,PITTSBURGH,15213,250,940,"SPECTRUM ENVIRONMENTAL, LLC",REMOVAL OF FLOOR TILE & MASTIC ON THE 3RD & 4TH FLOORS,580,t,2017-06-07,2017-12-31,JOE YAKUBISIN,t,f,2017-12-31,PAA,COMPLETE,40.4412696613065,-79.9544987907977
1751969,RES220062,RESIDENCE,1004  WELFER ST,PITTSBURGH,15217,0,,,REMOVAL OF GARAGE; BASEMENT & STAIRS FLOOR TILE BY AMERICAN CONTRACTING,675,t,2022-07-21,2022-09-02,AARON MAKATURA,f,f,2022-09-02,RES,COMPLETE,40.425679558832,-79.9312778368277
1751970,DEM220195,CITY OF PITTSBURGH REGULATED PROPERTY,2006 MOUNTFORD AVE,PITTSBURGH,15214,0,,,REMOVAL OF KITCHEN SHEET FLOORING BY UNIS DEMOLITION COMPANY,150,f,2022-09-23,2022-12-23,CALI FEENEY,f,f,2022-12-23,DEM,COMPLETE,40.464031221446,-80.0073915682943
1751971,PAA160504,FORMER MACY'S,430  5TH AVE,PITTSBURGH,15219,150,938,TRITON HOLDINGS,REMOVAL OF PLASTER CEILING AND PIPE INSULATION ON 9TH FLOOR AND 10TH FLOOR,21380,f,2016-11-14,2017-03-17,SHANNON SANDBERG,t,f,2017-03-17,PAA,COMPLETE,40.4467547536353,-79.9476804157173
1751972,UND220057,PRODUCE TERMINAL,2100 SMALLMAN ST,PITTSBURGH,15222,0,,,REMOVAL OF UPPER CLERESTORY ROOF WINDOW GLAZING BY BRISTOL ENVIRONMENTAL; INC,108,t,2022-09-06,2022-11-30,DANIEL ZOLDOS,f,f,2022-10-15,UND,COMPLETE,,
1751973,PAA180712,CITY COUNTY BUILDING MEZZANINIE,414 GRANT ST,PITTSBURGH,15219,850,911,"MASA, LLC DBA CANFIELD DEVELOPMENT",REMOVE  FLOOR TILE FROM MEZZANINE; COURT RECORDS COMPUTER ROOM,1350,f,2018-12-26,2019-01-02,JOE YAKUBISIN,t,f,2019-01-02,PAA,COMPLETE,40.4381146583578,-79.9968595061029
1751974,PAA170654,404 JUCUNDA STREET - PITTSBURGH; PA 15210,404  JUCUNDA ST,PITTSBURGH,15210,850,920,GENERAL CONTRACTING CORP. OF AMERICA,DEMOLISH THE STRUCTURE AND GRADE THE LOT - ALL MATERIAL TREATED AS ACM,1072,f,2017-12-07,2017-12-17,JOE YAKUBISIN,t,f,2017-12-17,PAA,COMPLETE,40.4172035131272,-79.9953005515597
1751975,DEM220308,BOROUGH OF PLUM REGULATED PROPERTY,122  SIPLE ST,PLUM,15239,0,,,DEMOLITION,,f,2022-12-05,2023-12-20,CALI FEENEY,f,f,2023-12-20,DEM,ACTIVE,40.4933676281944,-79.7831774693289
1751976,PAA170209,PPU - ACADEMIC THAYER HALL,201  WOOD ST,PITTSBURGH,15222,850,908,"BRISTOL ENVIRONMENTAL, INC.",FLOOR TILE/MASTIC IN LAB 311;411;611A/B AND TRANSITE COUNTER TOPS IN LAB 311;411,4708,t,2017-05-02,2017-05-31,JOE YAKUBISIN,t,f,2017-05-31,PAA,COMPLETE,40.438473387621,-80.0019297272016
1751977,PAA160557,PPG,440 COLLEGE PARK DR,MONROEVILLE,15146,650,902,"AMERICAN CONTRACTING ENTERPRISES, INC.",FLOOR TILE/MASTIC IN LAB C-138,1040,t,2016-12-15,2016-12-31,JOE YAKUBISIN,t,f,2016-12-31,PAA,COMPLETE,40.4423014501313,-79.7324027374942
1751978,PAA160391,SOUTH FAYETTE TOWNSHIP MUNICIPAL BUILDING,515 MILLERS RUN RD,SOUTH FAYETTE,15064,150,927,KEY ASBESTOS ABATEMENT INC,FLOOR TILE/MASTIC IN LIBRARY,1750,t,2016-08-31,2016-09-30,JOE YAKUBISIN,t,f,2016-09-30,PAA,COMPLETE,40.3557876284338,-80.1440648831255
1751979,PAA160472,,1208  SWISSVALE AVE,WILKINSBURG,15221,650,908,"BRISTOL ENVIRONMENTAL, INC.",FLOOR TILE/MASTIC IN LIVING ROOM/2ND FLOOR BEDROOMS AND TRANSITE SIDING,3350,f,2016-10-24,2016-11-11,JOE YAKUBISIN,t,f,2016-11-11,PAA,COMPLETE,40.4432730409931,-79.876624350304
1751980,PAA150280,WILSON ELEMENTARYSCHOOL,100 BRUNO LN,IMPERIAL,15126,650,931,PHASE ONE DEVELOPMENT CORPORATION,FLOOR TILE/MASTIC IN MULTI-PURPOSE ROOM;CAFETRIA,3200,t,2015-06-12,2016-06-12,DON HORGAN,t,f,2016-06-12,PAA,COMPLETE,40.4442609960725,-80.2669340093503
1751981,PAA160244,MCKEE ELEMENTARY SCHOOL,1501 OAKDALE RD,OAKDALE,15071,650,911,"MASA, LLC DBA CANFIELD DEVELOPMENT",FLOOR TILE/MASTIC IN MULTUPURPOSE ROOM,2200,t,2016-06-15,2016-07-15,JOE YAKUBISIN,t,f,2016-07-15,PAA,COMPLETE,40.4153240374846,-80.1934126875286
1751982,PAA160363,SHULTS FORD,2871  FREEPORT RD,HARMAR,15238,650,925,"KLA ROOFING & CONSTRUCTION, LLC",FLOOR TILE/MASTIC IN OFFICE;BREACROOM;STAIRWELL;CAULKING ON GARAGE DOOR AND ROOFING,1270,f,2016-08-15,2017-05-17,JOE YAKUBISIN,t,f,2017-05-17,PAA,COMPLETE,40.5391640263607,-79.8310797932735
1751983,PAA150374,COUNTY OFFICE BUILDING,542 FORBES AVE.,PITTSBURGH,15219,650,911,"MASA, LLC DBA CANFIELD DEVELOPMENT",FLOOR TILE/MASTIC IN PHOTO LAB AND RECORDER OF DEEDS,4040,f,2015-08-10,2015-10-30,JOE YAKUBISIN,t,f,2015-10-30,PAA,COMPLETE,40.4377527428062,-79.9958806222119
1751984,PAA140076,BALDWIN MUNICIPAL BUILDING,3344 CHURCHVIEW AVE,PITTSBURGH,15227,150,927,KEY ASBESTOS ABATEMENT INC,FLOOR TILE/MASTIC IN POLICE LOCKER ROOM,230,t,2014-03-04,2014-03-31,JOE YAKUBISIN,t,f,2014-03-31,PAA,COMPLETE,40.3834227955233,-79.9569408476708
1751985,PAA140215,SAINT LOUISE DE MARILLAC,310 MCMURRAY ROAD,PITTSBURGH,15241,350,941,"PRISM RESPONSE, LLC DBA ALLOY",FLOOR TILE/MASTIC IN ROOM 102,1700,f,2014-06-16,2014-06-30,JOE YAKUBISIN,t,f,2014-06-30,PAA,COMPLETE,40.3169401563001,-80.0722394137689
1751986,PAA150359,SOUTH PARK MIDDLE SCHOOL,2500 STEWART ROAD,PITTSBURGH,15129,150,903,"AMERICAN INDUSTRIAL CONTRACTING, INC.",FLOOR TILE/MASTIC IN ROOM 124,750,t,2015-07-09,2015-07-10,DON HORGAN,t,f,2015-07-10,PAA,COMPLETE,40.2948427237626,-80.0127414378798
1751987,PAA170184,CMU - BAKER HALL,5000 FORBES AVE,PITTSBURGH,15213,200,927,KEY ASBESTOS ABATEMENT INC,FLOOR TILE/MASTIC IN ROOM 132G,252,t,2017-04-11,2017-04-30,JOE YAKUBISIN,t,f,2017-04-30,PAA,COMPLETE,40.4442129846549,-79.94339909741
1751988,PAA150189,MAGEE WOMEN'S HOSPITAL - GULF BUILDING,327 CRAFT AVE.,PITTSBURGH,15213,150,940,"SPECTRUM ENVIRONMENTAL, LLC",FLOOR TILE/MASTIC IN ROOM 202,230,t,2015-04-29,2015-05-10,JOE YAKUBISIN,t,f,2015-05-10,PAA,COMPLETE,40.4352438846107,-79.9603923531825
1751989,PAA140363,FOX CHAPEL HIGH SCHOOL,611 FIELD CLUB ROAD,PITTSBURGH,15238,150,911,"MASA, LLC DBA CANFIELD DEVELOPMENT",FLOOR TILE/MASTIC IN ROOM 202,40,t,2014-08-25,2014-10-29,JOE YAKUBISIN,t,f,2014-10-29,PAA,COMPLETE,40.5181068090316,-79.8686773482571
1751990,PAA160132,UNIVERSITY OF PITTSBURGH - THACKERY HALL,139 UNIVERSITY PL,PITTSBURGH,15213,150,939,UNIVERSITY OF PITTSBURGH,FLOOR TILE/MASTIC IN ROOM 362,260,t,2016-03-17,2016-04-08,JOE YAKUBISIN,t,f,2016-04-17,PAA,COMPLETE,40.4445093299916,-79.9569959117326
1751991,PAA140387,UNIVERSITY OF PITTSBURGH - SALK HALL,3501 TERRACE ST,PITTSBURGH,15213,150,939,UNIVERSITY OF PITTSBURGH,FLOOR TILE/MASTIC IN ROOM 559,186,t,2014-09-29,2014-12-31,JOE YAKUBISIN,t,f,2014-12-31,PAA,COMPLETE,40.4426888828033,-79.9628372268336
1751992,RES220077,RESIDENCE,415  GOVERNOR DR,HAMPTON,15101,0,,,REMOVAL OF BATHROOM FLOOR TILE BY AMERICAN CONTRACTING ENTERPRISES; INC,50,t,2022-08-29,2022-12-31,CALI FEENEY,f,f,2022-12-31,RES,COMPLETE,40.5539415395317,-79.9605021929802
1751993,UND220050,ARCHANGEL GABRIAL SCHOOL,5720  STEUBENVILLE PIKE,MCKEES ROCKS,15136,0,,,REMOVAL OF BOILER MUD & GASKETS FROM BOILER ROOM BY AMERICAN CONTRACTING ENTERPRISES; INC.,80,t,2022-07-26,2022-09-02,DANIEL ZOLDOS,f,f,2022-09-02,UND,COMPLETE,40.4523153239949,-80.1363291782074
1751994,UND220070,SACRED HEARTELEMENTARY SCHOOL,325 EMERSON ST,PITTSBURGH,15206,0,,,REMOVAL OF BOOK STORAGE ROOM ACOUSTICAL CEILING AND DEBRIS BY AMERICAN CONTRACTING ENTERPRISES; INC.,25,t,2022-10-10,2022-12-31,DANIEL ZOLDOS,f,f,2022-12-31,UND,COMPLETE,40.4556960778335,-79.9236661371094
1751995,UND220087,CITY OF MCKEESPORT REGULATED PROPERTY,713  LEECH ST,MCKEESPORT,15132,0,,,REMOVAL OF EXTERIOR WINDOW GLAZING & BASEMENT DUCT TAPE BY TRIFECTA,22,f,2022-10-24,2023-10-31,CALI FEENEY,f,f,2023-10-31,UND,COMPLETE,40.3565128301976,-79.8297863027657
1751996,PAA170302,CMU - BAKER HALL,5000 FORBES AVE,PITTSBURGH,15213,450,927,KEY ASBESTOS ABATEMENT INC,REMOVAL OF FLOOR TILE AND MASTIC IN ROOMS 132M & 232Q,725,t,2017-06-14,2017-07-31,JOE YAKUBISIN,t,f,2017-07-31,PAA,COMPLETE,40.4442129846549,-79.94339909741
1751997,PAA170310,WEST PENN HOSPITAL,4800 FRIENDSHIP AVE,PITTSBURGH,15224,200,903,"AMERICAN INDUSTRIAL CONTRACTING, INC.",REMOVAL OF FLOOR TILE/MASTIC IN WOMEN'S RESTROOM; SUITE 1606D; & SLOP SINK ROOM.,267,t,2017-06-10,2017-07-15,JOE YAKUBISIN,t,f,2017-07-15,PAA,COMPLETE,40.4621317678598,-79.9462630434165
1751998,DEM220305,NORTH BRADDOCK REGULATED PROPERTY,1025  CLIFF ST,BRADDOCK,15104,0,,,REMOVAL OF KITCHEN FLOOR TILES BY GRAY WASTE MANAGEMENT CORPORATION,120,f,2022-12-23,2023-12-22,CALI FEENEY,f,f,2023-12-22,DEM,ACTIVE,40.4072570323303,-79.8583849207786
1751999,UND220054,GRANT BUILDING,310  GRANT ST,PITTSBURGH,15219,0,,,REMOVAL OF MUD FITTINGS & PIPE INSULATION IN CHASE AT LEVELS 3B - 5B BY CANFIELD DEVELOPMENT,132,t,2022-08-12,2022-08-31,CALI FEENEY,f,f,2022-08-31,UND,COMPLETE,40.4376598512588,-79.9975389376103
1752000,PAA160152,UPMC MCKEESPORT HOSPITAL - SHAW BUILDING,1500 5TH AVE,MCKEESPORT,15132,300,940,"SPECTRUM ENVIRONMENTAL, LLC",REMOVAL OF ROOF FLASHING FROM UPPER WEST ROOF,850,t,2016-03-28,2016-04-30,JOE YAKUBISIN,t,f,2016-04-30,PAA,COMPLETE,40.3513577942261,-79.8498321945279
1752001,DEM220164,MUNICIPALITY REGULATED PROPERTY,1209  SHERMAN ST,WILKINSBURG,15221,0,,,REMOVAL OF SHEET FLOORING ON BASEMENT LANDING AND STAIRS AND DOOR & WINDOW CAULKING BY GRAY WASTE MANAGEMETN,33,f,2022-08-19,2023-08-18,AARON MAKATURA,f,f,2023-08-18,DEM,COMPLETE,40.4477249750904,-79.8729932848116
1752002,PAA150050,,1819 JAMES ST,MONROEVILLE,15146,350,941,"PRISM RESPONSE, LLC DBA ALLOY",FLOOR TILE/MASTIC IN BASEMENT AND DOOR CAULKING ON FRONT DOOR,452,f,2015-01-21,2015-01-30,JOE YAKUBISIN,t,f,2015-01-30,PAA,COMPLETE,40.4231547262807,-79.794639183241
1752003,PAA140106,CMU,205 S. CRAIG STREET,PITTSBURGH,15213,650,927,KEY ASBESTOS ABATEMENT INC,FLOOR TILE/MASTIC IN BASEMENT BATHROOM;LIVING ROOM;DINING ROOM;WORKSHOP;1ST AND 2ND FLOOR HALLWAY. FLOOE TILE 1ST FLOOR REAR ROOM. FUSE BOX INSULATION 2ND FLOOR HALLWAY AND ROOF FLASHING,1904,f,2014-03-20,2014-12-31,JOE YAKUBISIN,t,f,2014-12-31,PAA,COMPLETE,40.4461488685831,-79.9486555236303
1752004,PAA190416,CARNEGIE LIBRARY - MOUNT WASHINGTON BRANCH,315  GRANDVIEW AVE,PITTSBURGH,15211,850,921,GRAY WASTE MANAGEMENT CORPORATION,FLOOR TILE/MASTIC IN BASEMENT MEETING ROOM; THERMAL SYSTEM INSULATION PIPING AND PIPE FITTINGS THROUGHOUT BASEMENT,1115,t,2019-07-03,2020-07-02,JOE YAKUBISIN,t,f,2020-07-02,PAA,COMPLETE,40.4335180733132,-80.010481215734
1752005,PAA150461,FOODLAND,5821 LIBRARY ROAD,BETHEL PARK,15102,650,902,"AMERICAN CONTRACTING ENTERPRISES, INC.",FLOOR TILE/MASTIC IN BATHROOMS;WALK-IN COOLER AND TRANSITE CEILING IN BACK ROOM,4000,f,2015-09-16,2015-11-13,JOE YAKUBISIN,t,f,2015-11-13,PAA,COMPLETE,40.3101604881096,-80.032587003163
1752006,PAA150572,CARLOW UNIVERSITY - TRINITY HALL,3333 FIFTH AVE,PITTSBURGH,15213,350,908,"BRISTOL ENVIRONMENTAL, INC.",FLOOR TILE/MASTIC IN CLASSROOM #4,769,t,2015-12-21,2015-12-31,JOE YAKUBISIN,t,f,2015-12-31,PAA,COMPLETE,40.4392965271551,-79.9634127984317
1752007,PAA140377,FOX CHAPEL GOLF CLUB,426 FOX CHAPEL ROAD,PITTSBURGH,15238,650,941,"PRISM RESPONSE, LLC DBA ALLOY",FLOOR TILE/MASTIC IN CLUB HOUSE KITCHEN AND CORRIDOR;PIPE INSULATION IN CORRIDOR;SHOP AREA AND BOILER ROOM AND TANK INSULATION IN BOILER,1437,t,2014-09-15,2014-10-09,JOE YAKUBISIN,t,f,2014-10-09,PAA,COMPLETE,40.5229384347873,-79.8778213870291
1752008,PAA160245,RMU -  YORKTOWN HALL,8256 UNIVERSITY BLVD,MOON,15108,650,908,"BRISTOL ENVIRONMENTAL, INC.",FLOOR TILE/MASTIC IN DINING ROOM AND ROOF FLASHING,1840,t,2016-05-26,2016-07-31,JOE YAKUBISIN,t,f,2016-07-31,PAA,COMPLETE,40.5105392318767,-80.2250667230234
1752009,PAA140176,UPMC - PRESBYTERIAN HOSPITAL,200 LOTHROP ST,PITTSBURGH,15213,650,940,"SPECTRUM ENVIRONMENTAL, LLC",FLOOR TILE/MASTIC IN F-WING STAIRWELL,1500,t,2014-05-12,2014-06-30,JOE YAKUBISIN,t,f,2014-06-30,PAA,COMPLETE,40.4422470230786,-79.9609286975283
1752010,PAA160453,WHITE OAK ATHLETIC ASSOCIATION,1798 LOWER HECKMAN RD,WHITE OAK,15131,650,911,"MASA, LLC DBA CANFIELD DEVELOPMENT",FLOOR TILE/MASTIC IN GYM AND HALLWAY,7000,f,2016-10-05,2016-11-01,JOE YAKUBISIN,t,f,2016-11-01,PAA,COMPLETE,40.3499919227269,-79.8018484993966
1752011,PAA140436,WOODLAND HILLS ACADEMY,126 MONROEVILLE AVE.,TURTLE CREEK,15145,150,902,"AMERICAN CONTRACTING ENTERPRISES, INC.",FLOOR TILE/MASTIC IN ROOMS 107;108;108A;109;111;112;LIBRARY;STORAGE AND SMALL ROOM,5042,t,2014-10-27,2015-09-08,JOE YAKUBISIN,t,f,2014-12-31,PAA,COMPLETE,40.4053218215604,-79.823722770657
1752012,PAA160051,911TH AIR FORCE RESERVE COMMAND,2475 DEFENSE AVENUE,CORAOPOLIS,15108,350,902,"AMERICAN CONTRACTING ENTERPRISES, INC.",FLOOR TILE/MASTIC IN ROOMS 122;122.1 AND 124,585,t,2016-01-22,2016-02-26,JOE YAKUBISIN,t,f,2016-02-26,PAA,COMPLETE,40.4924026304728,-80.2103127475767
1752013,PAA140212,UNIVERSITY OF PITTSBURGH APPLIED RESEARCH CENTER - BUILDING B-1,3170 WILLIAM PITT WAY,PITTSBURGH,15238,350,941,"PRISM RESPONSE, LLC DBA ALLOY",FLOOR TILE/MASTIC IN ROOMS 127 AND 128,840,t,2014-05-26,2014-05-30,JOE YAKUBISIN,t,f,2014-05-30,PAA,COMPLETE,40.5449997734214,-79.8271432746162
1752014,PAA140207,CCAC SOUTH CAMPUS BUILDING - D,1750 CLAIRTON ROAD,WEST MIFFLIN,15122,650,940,"SPECTRUM ENVIRONMENTAL, LLC",FLOOR TILE/MASTIC IN ROOMS 217/218;407;419 AND TRANSITE FUME HOODS IN ROOM 217/218;419,10565,t,2014-05-28,2014-06-13,JOE YAKUBISIN,t,f,2014-06-13,PAA,COMPLETE,40.3296682344739,-79.9243087461299
1752015,PAA140238,CARNEGIE MELLON UNIVERSITY - BAKER HALL,5000 FORBES AVE.,PITTSBURGH,15213,650,927,KEY ASBESTOS ABATEMENT INC,FLOOR TILE/MASTIC IN ROOMS 235A;235B;237B AND 255A,2180,t,2014-06-17,2014-09-30,DON HORGAN,t,f,2014-07-30,PAA,COMPLETE,40.4442129846549,-79.94339909741
1752016,PAA150336,PSU GREATER ALLEGHENY CAMPUS - FRABLE BUILDING,4000 UNIVERSITY DRIVE,MCKEESPORT,15132,350,908,"BRISTOL ENVIRONMENTAL, INC.",FLOOR TILE/MASTIC IN ROOMS 314 AND 309,961,t,2015-07-07,2015-07-10,DON HORGAN,t,f,2015-07-10,PAA,COMPLETE,40.3444432854474,-79.8271792769242
1752017,PAA160424,U-PARC  BUILDING A-4,3170 WILLIAM PITT WAY,HARMAR,15238,650,941,"PRISM RESPONSE, LLC DBA ALLOY",FLOOR TILE/MASTIC IN ROOMS 323;325;324;325A;312 322 AND 314,1450,t,2016-09-26,2016-10-05,JOE YAKUBISIN,t,f,2016-10-05,PAA,COMPLETE,40.5449997734214,-79.8271432746162
1752018,PAA160374,UPARC BUILDING B-3,3170 WILLIAM PITT WAY,HARMAR,15238,650,941,"PRISM RESPONSE, LLC DBA ALLOY",FLOOR TILE/MASTIC IN ROOMS 324;317;315;313;311 AND 312,2500,t,2016-08-22,2016-09-12,JOE YAKUBISIN,t,f,2016-09-12,PAA,COMPLETE,40.5449997734214,-79.8271432746162
1752019,PAA140248,DUQUESNE TOWERS,1345 VICKROY ST,PITTSBURGH,15219,150,911,"MASA, LLC DBA CANFIELD DEVELOPMENT",FLOOR TILE/MASTIC IN ROOMS 326 AND 426,500,t,2014-06-10,2014-06-30,JOE YAKUBISIN,t,f,2014-06-30,PAA,COMPLETE,40.435875890395,-79.9867549987827
1752020,PAA224251,CHESWICK GENERATION STATION - ADMIN/UNIT 1,151 PORTER ST,SPRINGDALE BORO,15144,1850,977,"ARC ABATEMENT, INC",REMOVE  PIPING; STEAM DRUM; VAT; MASTIC; STUCCO PLASTER; INSULATION; CONDENSER COATING AND GALBESTOS,56006,f,2022-05-31,2023-03-30,JOE YAKUBISIN,t,f,2022-10-31,PAA,COMPLETE,40.5384086577513,-79.7893752211341
1752021,UND210045,STANDARD FORGED PRODUCTS,75 NICHOL AVE,MCKEES ROCKS,15136,0,941,"PRISM RESPONSE, LLC DBA ALLOY",REMOVE #10 FURNACE BOARD INSULATION,159,t,2021-06-02,2021-06-10,MARC ITKIN,t,f,2021-06-10,UND,COMPLETE,40.476458693138,-80.0607623836998
1752022,PAA170482,NOVA PLACE (OLD GYM) (FUTURE COMCAST SPACE),10 ALLEGHENY CENTER MALL,PITTSBURGH,15212,850,941,"PRISM RESPONSE, LLC DBA ALLOY",REMOVE & DISPOSE FLOOR TILE & MASTIC FROM OLD GYM & FUTURE COMCAST SPACE,2645,f,2017-09-06,2017-09-30,JOE YAKUBISIN,t,f,2017-09-30,PAA,COMPLETE,40.4519174333266,-80.0070278325912
1752023,PAA170424,CRESCENT TOWNSHIP VOLUNTEER FIRE DEPARTMENT,79 MCGOVERN BLVD,CRESCENT,15046,450,902,"AMERICAN CONTRACTING ENTERPRISES, INC.",REMOVE & DISPOSE OF FLOOR TILE & MASTIC IN HALLWAY PART OF MAIN FLOOR,300,t,2017-08-09,2017-12-31,JOE YAKUBISIN,t,f,2017-12-31,PAA,COMPLETE,40.5560894010683,-80.2210661356358
1752024,PAA170354,SAINT ANNE CONVENT,400  HOODRIDGE DR,PITTSBURGH,15234,200,902,"AMERICAN CONTRACTING ENTERPRISES, INC.",REMOVE & DISPOSE OF FLOOR TILE & MASTIC IN MUSIC MINISTRY OFFICE; ADJACENT HALLWAY; & LOWER ENTRANCE LANDING,270,t,2017-06-30,2017-09-29,JOE YAKUBISIN,t,f,2017-09-29,PAA,COMPLETE,40.3657271538023,-80.0341409047113
1752025,PAA170284,AVERY STREET CHURCH,501  AVERY ST,PITTSBURGH,15212,850,902,"AMERICAN CONTRACTING ENTERPRISES, INC.",REMOVE & DISPOSE OF FLOOR TILE IN BASEMENT & ON 1ST FL; PIPE/FITTING INSULATION IN BASEMENT & CRAWL SPACE; BOILER INS IN BOILER RMS; TANSITE CEILING/HEAT SHIELDS IN BOILER RM/BEHIND RADIATORS; INT GLAZING IN DINING RM; & LINOLEUM ON CNTR STAIRWELL LA,17240,f,2017-06-02,2017-12-31,JOE YAKUBISIN,t,f,2017-12-31,PAA,COMPLETE,40.4530165982478,-79.9997579704733
1752026,PAA170366,SAINT ANNE SCHOOL,4040 WILLOW AVE,PITTSBURGH,15234,450,902,"AMERICAN CONTRACTING ENTERPRISES, INC.",REMOVE & DISPOSE OF FLOOR TILE IN THE LIBRARY,660,t,2017-07-07,2017-09-01,JOE YAKUBISIN,t,f,2017-09-01,PAA,COMPLETE,40.3613033099936,-80.0295176814069
1752027,PAA170349,CRAFTON INGRAM SHOPPING CENTER FORMER RADIO SHACK,9  FOSTER AVE,PITTSBURGH,15205,450,902,"AMERICAN CONTRACTING ENTERPRISES, INC.",REMOVE & DISPOSE OF FLOOR TILE IN THE STORE ROOM,450,f,2017-06-29,2017-07-28,JOE YAKUBISIN,t,f,2017-07-28,PAA,COMPLETE,40.4412470609158,-80.0692580962181
1752028,PAA170352,SAINT MARY OF THE ASSUMPTION SCHOOL - GLENSHAW; PA,2510 MIDDLE RD,,15116,850,902,"AMERICAN CONTRACTING ENTERPRISES, INC.",REMOVE & DISPOSE OF FLOOR TILE ON IN THE FIRST FLOOR ENTRIES & HALLWAYS (2) AND FITTINGS IN OLD GYM,3012,t,2017-07-01,2017-09-01,JOE YAKUBISIN,t,f,2017-09-01,PAA,COMPLETE,40.5545089447322,-79.9318837649728
1752029,PAA150312,HYDE ELEMENTARY,110 WALLRIDGE DRIVE,MOON TOWNSHIP,15108,650,902,"AMERICAN CONTRACTING ENTERPRISES, INC.",FLOOR TILE/MASTIC IN GYM STORAGE;GUIDANCE OFFICE AND VACANT OFFICES,1100,t,2015-06-19,2015-07-17,DON HORGAN,t,f,2015-07-17,PAA,COMPLETE,40.5235652677138,-80.197021250801
1752030,PAA160279,PARKWAY CENTER MALL,1165 MCKINNEY LN,PITTSBURGH,15220,150,902,"AMERICAN CONTRACTING ENTERPRISES, INC.",FLOOR TILE/MASTIC IN K-MART AND ROOFING,126612,t,2016-06-03,2016-12-31,JOE YAKUBISIN,t,f,2016-12-31,PAA,COMPLETE,40.423008492808,-80.0350261380725
1752031,PAA140417,JEFFERSON REGIONAL MEDICAL CENTER,565 COAL VALLEY ROAD,JEFFERSON HILLS,15025,200,901,"ABMECH ACQUISITIONS, LLC",FLOOR TILE/MASTIC IN LADIES AUXILIARY AREA,456,t,2014-10-13,2014-12-31,JOE YAKUBISIN,t,f,2014-12-31,PAA,COMPLETE,40.3179030628942,-79.9336525202663
1752032,PAA160325,WASHINGTON SCHOOL,2501  MAIN ST,PENN HILLS,15235,650,941,"PRISM RESPONSE, LLC DBA ALLOY",FLOOR TILE/MASTIC IN LIBRARY,2800,t,2016-07-18,2016-07-30,JOE YAKUBISIN,t,f,2016-07-30,PAA,COMPLETE,40.4725867822888,-79.7918858462538
1752033,PAA160349,SOUTH FAYETTE TOWNSHIP MUNICIPAL BUILDING,515 MILLERS RUN RD,SOUTH FAYETTE,15064,350,927,KEY ASBESTOS ABATEMENT INC,FLOOR TILE/MASTIC IN LIBRARY;MEETING ROOM;HALLWAY OUTSIDE OF MEETING ROOM AND CLOSET,413,t,2016-08-01,2016-08-13,JOE YAKUBISIN,t,f,2016-08-13,PAA,COMPLETE,40.3557876284338,-80.1440648831255
1752034,PAA140196,BOYD COMMUNITY CENTER,1220 POWER RUN ROAD,PITTSBURGH,15238,650,957,"RITENOUR AND SONS CONSTRUCTION COMPANY, INC.",FLOOR TILE/MASTIC IN LIBRARY;PIPE WRAP IN TUNNELS/CRAWL SPACE AND WINDOW GLAZING,11800,f,2014-05-07,2014-05-26,JOE YAKUBISIN,t,f,2014-05-26,PAA,COMPLETE,40.5137311038309,-79.8571641393711
1752035,PAA160521,FIRST NATIONAL BANK,559  GRANT ST,PITTSBURGH,15219,650,903,"AMERICAN INDUSTRIAL CONTRACTING, INC.",FLOOR TILE/MASTIC IN LOBBY OF BANK,2000,t,2016-11-30,2016-12-31,JOE YAKUBISIN,t,f,2016-12-31,PAA,COMPLETE,40.4407241268015,-79.9963011995097
1752036,PAA170057,FIRST NATIONAL BANK,559  GRANT ST,PITTSBURGH,15219,200,903,"AMERICAN INDUSTRIAL CONTRACTING, INC.",FLOOR TILE/MASTIC IN REAR VESTIBULE/JANITORS CLOSET,66,t,2017-01-16,2017-01-18,JOE YAKUBISIN,t,f,2017-01-18,PAA,COMPLETE,40.4407241268015,-79.9963011995097
1752037,PAA160050,U.S. POST OFFICE,1731 EAST CARSON STREET,PITTSBURGH,15203,650,927,KEY ASBESTOS ABATEMENT INC,FLOOR TILE/MASTIC IN REAR WORKROOM AREA,3020,t,2016-01-25,2017-01-25,JOE YAKUBISIN,t,t,2017-01-25,PAA,COMPLETE,40.429004137448,-79.9810303166978
1752038,PAA140403,UPMC MCKEESPORT HOSPITAL - MANSFIELD BUILDING,1500 5TH AVE,MCKEESPORT,15132,150,940,"SPECTRUM ENVIRONMENTAL, LLC",FLOOR TILE/MASTIC IN ROOMS 720 - 721,440,t,2014-10-06,2014-10-30,JOE YAKUBISIN,t,f,2014-10-30,PAA,COMPLETE,40.3513577942261,-79.8498321945279
1752039,PAA160324,CHARTIERS VALLEY HIGH SCHOOL,50 THOMS RUN RD,BRIDGEVILLE,15017,150,931,PHASE ONE DEVELOPMENT CORPORATION,FLOOR TILE/MASTIC IN ROOMS P-105 AND P-114,2200,t,2016-07-08,2017-10-13,JOE YAKUBISIN,t,f,2017-06-13,PAA,COMPLETE,40.378788791577,-80.1025406961975
1752040,PAA160103,CCAC - BOYCE,595  BEATTY RD,MONROEVILLE,15146,650,903,"AMERICAN INDUSTRIAL CONTRACTING, INC.",FLOOR TILE/MASTIC IN SOUTH WING ROOMS 419;420;421;422;423;453;454 AND 457,3930,t,2016-02-22,2016-03-22,JOE YAKUBISIN,t,f,2016-03-22,PAA,COMPLETE,40.4535711795215,-79.7524371952016
1752041,PAA170091,UPARC - BUILDING A-2,3170 WILLIAM PITT WAY,HARMAR,15238,850,941,"PRISM RESPONSE, LLC DBA ALLOY",FLOOR TILE/MASTIC IN TUNNEL AND STAIRWELL,1200,t,2017-02-24,2017-02-27,JOE YAKUBISIN,t,f,2017-02-27,PAA,COMPLETE,40.5449997734214,-79.8271432746162
1752042,PAA170205,NOVA PLACE TOWER 2,100 S COMMONS ST,PITTSBURGH,15212,200,941,"PRISM RESPONSE, LLC DBA ALLOY",FLOOR TILE/MASTIC ON 10TH FLOOR ELEVATOR LOBBY,1980,t,2017-04-24,2017-08-17,JOE YAKUBISIN,t,f,2017-08-17,PAA,COMPLETE,40.4510114242591,-80.0051923989784
1752043,DEM220309,PLUM BOROUGH REGULATED PROPERTY,826  GARLOW BLVD,PLUM,15239,0,,,DEMOLITION BY KU RESOURCES,,f,2022-12-05,2023-02-20,CALI FEENEY,f,f,2023-02-20,DEM,COMPLETE,40.4926854472585,-79.7749070689644
1752044,DEM220249,CAFÉ COD HOUSE - 239 BRAMBLE STREET,,PENN HILLS,15235,0,,,DEMOLITION BY LUTTERMAN EXCAVATING; LLC,,f,2022-11-12,2023-01-15,CALI FEENEY,f,f,2023-01-15,DEM,COMPLETE,40.4639030868803,-79.8873454097267
1752045,DEM220284,FORMER J&G CORNER STORE/APARTMENT,215  CORBET ST,TARENTUM,15084,0,,,DEMOLITION BY TOM SIPES,,f,2022-11-30,2023-11-01,CALI FEENEY,f,f,2023-11-01,DEM,COMPLETE,40.6017352618312,-79.751645245874
1752046,PAA224089,CITY OF PITTSBURGH REGULATED PROPERTY,2303 CENTRE AVE,PITTSBURGH,15219,350,921,GRAY WASTE MANAGEMENT CORPORATION,DEMOLITION IN PLACE,1488,f,2022-02-07,2023-01-20,JOE YAKUBISIN,t,f,2023-01-20,PAA,COMPLETE,40.4452495139869,-79.9738516973797
1752047,PAA170573,MERCY HOSPITAL,1400 LOCUST ST,PITTSBURGH,15219,850,940,"SPECTRUM ENVIRONMENTAL, LLC",REMOVE & DISPOSE OF FLOOR TILE/CARPET & MASTIC IN VARIOUS ROOMS AND NURSES STATION,2460,t,2017-10-13,2018-10-12,JOE YAKUBISIN,t,f,2017-12-30,PAA,COMPLETE,40.4360439740714,-79.9854587006851
1752048,PAA170531,TWO PNC PLAZA,620  LIBERTY AVE,PITTSBURGH,15222,200,928,NORTHSTAR CONTRACTING GROUP INC,REMOVE & DISPOSE OF FLOORING MASTINC ON FLOORS 10; 13;  21; 23; 26; 27; 28; & 29,3200,t,2017-09-25,2017-12-31,JOE YAKUBISIN,t,f,2017-12-31,PAA,COMPLETE,40.4418188313799,-80.0008354490418
1752049,PAA170442,WESTINGHOUSE PERFORMANCE ARTS CHARTER SCHOOL,301  MARGUERITE AVE,WILMERDING,15148,850,921,GRAY WASTE MANAGEMENT CORPORATION,REMOVE & DISPOSE OF PIPE INSULATION IN VARIOUS LOCATIONS; VAT/MASTIC ON THE 2ND & 3RD FLOORS; CONTAMINATED DEVRIS IN CRAWLSPACE/GYNASUIM; & SINK/BASIN UNDERCOATING IN THE LIBRARY OFFICE; RM 307 & RM 310,19333,f,2017-08-07,2017-12-31,JOE YAKUBISIN,t,f,2017-12-31,PAA,COMPLETE,40.3914558755634,-79.8073987536551
1752050,PAA170484,HAEMONETICS CO; BUNCHER COMMERCE PARK; AVE C; BLDG 18,,LEETSDALE,15056,450,902,"AMERICAN CONTRACTING ENTERPRISES, INC.",REMOVE & DISPOSE OF ROOFING,374,t,2017-09-11,2017-12-31,JOE YAKUBISIN,t,f,2017-12-31,PAA,COMPLETE,40.5699471899231,-80.2231260057575
1752051,PAA170516,CARNEGIE LIBRARY/MUSEUM - BROWN ELEVATOR MECHANICAL ROOM,4400  FORBES AVE,PITTSBURGH,15213,200,901,"ABMECH ACQUISITIONS, LLC",REMOVE & DISPOSE OF THERMAL PIPE IN THE FIRST FLOOR BORWN ELEVATOR MECH ROOM,290,t,2017-09-25,2017-09-30,JOE YAKUBISIN,t,f,2017-09-30,PAA,COMPLETE,40.4437064529995,-79.9491020730779
1752052,PAA170496,NORTH FAYETTE/HANKEY FARMS POOL,7521 STEUBENVILLE PIKE,OAKDALE,15071,450,902,"AMERICAN CONTRACTING ENTERPRISES, INC.",REMOVE & DISPOSE OF TRANSITE ON ABOVE FILTRATION SYSTEM TROUGH,315,f,2017-08-31,2017-09-29,JOE YAKUBISIN,t,f,2017-09-29,PAA,COMPLETE,40.4407038248321,-80.2017775430558
1752053,PAA170628,PORT AUTHORITY MANCHESTER - ROOM 313,2235 BEAVER AVE,PITTSBURGH,15233,200,905,"BLT CONTRACTING, INC.",REMOVE & DISPOSE OF VAT/MASTIC IN ROOM 313,267,t,2017-11-24,2018-11-24,JOE YAKUBISIN,t,f,2018-11-24,PAA,COMPLETE,40.4615793455701,-80.0324641502008
1752054,PAA170620,RESIDENCE/COMMERCIAL 624 E. OHIO STREET,624 E OHIO ST,PITTSBURGH,15212,450,917,DORE & ASSOCIATES,REMOVE & DISPOSE OF WINDOW GLAZING IN DINER & FLOORING/STS MOSTIC NAD IN 1ST FLOOR APARTMENT AND STAIRWELL,400,f,2017-11-20,2017-12-29,SHANNON SANDBERG,t,f,2017-12-29,PAA,COMPLETE,40.4541104884672,-79.998282993581
1752055,PAA224514,VACANT RESIDENCE,579 MOON CLINTON RD,CORAOPOLIS,15108,1250,902,"AMERICAN CONTRACTING ENTERPRISES, INC.",REMOVE BASEMENT FLOOR TILE & MASTIC AND GARAGE AND HOUSE ROOFING,4400,f,2022-11-07,2022-12-30,JOE YAKUBISIN,t,f,2022-12-30,PAA,COMPLETE,40.5131324866538,-80.257753981035
1752056,PAA140396,UNIVERSITY OF PITTSBURGH - LANGLY HALL,4337 5TH AVE,PITTSBURGH,15213,350,908,"BRISTOL ENVIRONMENTAL, INC.",FLOOR TILE/MASTIC IN ROOM 117,930,t,2014-10-13,2014-10-24,JOE YAKUBISIN,t,f,2014-10-24,PAA,COMPLETE,40.4465484312832,-79.9522899622163
1752057,PAA140308,CARNEGIE MELLON UNIVERSITY - BAKER HALL,4825 FREW ST,PITTSBURGH,15213,150,927,KEY ASBESTOS ABATEMENT INC,FLOOR TILE/MASTIC IN ROOM 129H,236,t,2014-07-18,2014-08-31,JOE YAKUBISIN,t,f,2014-08-31,PAA,COMPLETE,40.4414858879193,-79.9449920950187
1752058,PAA160210,ST ROSALIAS ES,411  GREENFIELD AVE,PITTSBURGH,15207,650,902,"AMERICAN CONTRACTING ENTERPRISES, INC.",FLOOR TILE/MASTIC IN ROOMS 101;102;103;STORAGE AREA AND HALLWAY;COUNTERTOPS IN ROOM 101,4700,t,2016-05-09,2016-09-02,JOE YAKUBISIN,t,f,2016-09-02,PAA,COMPLETE,40.4258328082863,-79.9428291965635
1752059,PAA150300,PITTSBURGH CARMALT PREK - 8,1550 BREINING ST,PITTSBURGH,15226,150,902,"AMERICAN CONTRACTING ENTERPRISES, INC.",FLOOR TILE/MASTIC IN ROOMS G127;G129;G130;G132;172;126;E104;E214;E215 AND E101,244,t,2015-06-29,2015-07-31,DON HORGAN,t,f,2015-07-31,PAA,COMPLETE,40.3877921195565,-80.0068241907116
1752060,PAA160258,FAA RTR TRANSMITTER SITE,14 ALLEGHENY COUNTY AIRPORT,WEST MIFFLIN,15122,350,908,"BRISTOL ENVIRONMENTAL, INC.",FLOOR TILE/MASTIC IN RTR ROOM,228,f,2016-06-03,2016-06-30,JOE YAKUBISIN,t,f,2016-06-30,PAA,COMPLETE,40.3505375620789,-79.9273772581512
1752061,PAA150403,INGRAM SHOPPING CENTER,70 WEST STEUBEN STREET,CRAFTON,15205,650,903,"AMERICAN INDUSTRIAL CONTRACTING, INC.",FLOOR TILE/MASTIC IN SPACE 13,1500,f,2015-08-10,2015-08-31,JOE YAKUBISIN,t,f,2015-08-31,PAA,COMPLETE,40.439005767948,-80.0698066064554
1752062,PAA150371,,1771 GOLDEN MILE HIGHWAY,MONROEVILLE,15146,350,902,"AMERICAN CONTRACTING ENTERPRISES, INC.",FLOOR TILE/MASTIC IN STORAGE ROOM AND KITCHEN,350,f,2015-07-30,2015-09-04,JOE YAKUBISIN,t,f,2015-09-04,PAA,COMPLETE,40.4442259468869,-79.713620584953
1752063,PAA150150,SOUTH PARK SHOPS,5253 LIBRARY ROAD,BETHEL PARK,15102,650,927,KEY ASBESTOS ABATEMENT INC,FLOOR TILE/MASTIC IN STOREROOM #7,8125,t,2015-04-06,2015-04-30,JOE YAKUBISIN,t,f,2015-04-30,PAA,COMPLETE,40.3324667578513,-80.0218629201145
1752064,PAA170244,AHN WEST PENN HOSPITAL,4800 FRIENDSHIP AVE,PITTSBURGH,15224,200,908,"BRISTOL ENVIRONMENTAL, INC.",FLOOR TILE/MASTIC IN SUITES 452;HOUSEKEEPING;448 AND 442,304,t,2017-05-05,2017-08-30,JOE YAKUBISIN,t,f,2017-08-30,PAA,COMPLETE,40.4621317678598,-79.9462630434165
1752065,PAA224092,CITY OF PITTSBURGH REGULATED PROPERTY,7011  CHAUCER ST,PITTSBURGH,15208,350,921,GRAY WASTE MANAGEMENT CORPORATION,DEMOLITION IN PLACE,2441,f,2022-02-15,2023-02-07,JOE YAKUBISIN,t,f,2023-02-07,PAA,COMPLETE,40.4639425451567,-79.8984738916887
1752066,PAA170296,811 PENN AVENUE - WILKINSBURG,811  PENN AVE,WILKINSBURG,15221,850,902,"AMERICAN CONTRACTING ENTERPRISES, INC.",DEMOLITION OF BUILDING,5040,f,2017-05-30,2017-06-30,JOE YAKUBISIN,t,f,2017-06-30,PAA,COMPLETE,40.4426195830691,-79.8815128903768
1752067,PAA170297,810 TAYLOR WAY,810  TAYLOR WAY,WILKINSBURG,15221,850,902,"AMERICAN CONTRACTING ENTERPRISES, INC.",DEMOLITION OF BUILDING,750,f,2017-05-30,2017-06-30,JOE YAKUBISIN,t,f,2017-06-30,PAA,COMPLETE,40.4991765054381,-80.0660036143714
1752068,DEM200134,MARATHON PETROLUEM,,CLAIRTON,15025,0,942,WEAVERTOWN ENVIRONMENTAL GROUP,DEMOLITION OF FLOREFFE ASPHALT TERMINALS TANK,,f,2020-09-21,2020-12-30,JOE YAKUBISIN,t,f,2020-12-30,DEM,COMPLETE,40.2938146065132,-79.8996029391597
1752069,DEM220093,NORFOLK SOUTHER BRIDGEMP PC-120 - 571 MERCHANT ST,,PITTSBURGH,15212,0,,,DEMOLITION OF RAILROAD BRIDGE,,f,2022-06-01,2022-09-30,CALI FEENEY,f,f,2022-09-30,DEM,COMPLETE,40.483602079867,-80.0488610192284
1752070,PAA150489,,2914 SMALLMAN STREET,PITTSBURGH,15222,350,938,TRITON HOLDINGS,DOOR CAULKING ON 1ST FLOOR;CHIMNEY LINER ON 1ST AND 2ND FLOORS AND ROOFING,544,f,2015-10-05,2016-10-05,JOE YAKUBISIN,t,f,2016-10-05,PAA,COMPLETE,40.4586889849266,-79.9747996676187
1752071,PAA140482,CITIZEN'S BANK - WEXFORD BRANCH,11060 PERRY HIGHWAY,WEXFORD,15090,350,908,"BRISTOL ENVIRONMENTAL, INC.",DRYWALL COMPOUND AND CARPET MASTIC ON MAIN FLOOR,436,t,2014-12-09,2014-12-31,JOE YAKUBISIN,t,f,2014-12-31,PAA,COMPLETE,40.6193572529864,-80.0548217752238
1752072,PAA160509,POST OFFICE  - WARRENDALE 15086,300  BRUSH CREEK RD,MARSHALL,15086,350,905,"BLT CONTRACTING, INC.",DRYWALL COMPOUND ON 1ST;2ND AND 3RD FLOORS,480,f,2016-11-16,2017-11-16,JOE YAKUBISIN,t,f,2017-11-16,PAA,COMPLETE,40.6649264091011,-80.1069244761145
1752073,PAA150249,,7313-7315-7323-7349-7351-7353 HAMILTON AVE.,PITTSBURGH,15208,650,920,GENERAL CONTRACTING CORP. OF AMERICA,DUCT TAPE;FLOOR TILE AND ROOFING,1250,f,2015-05-25,2015-05-31,DON HORGAN,t,f,2015-05-31,PAA,COMPLETE,,
1752074,RES210120,RESIDENCE,119  VALLEY DR,ASPINWALL,15215,0,902,"AMERICAN CONTRACTING ENTERPRISES, INC.",REMOVE BASEMENT FLOOR TILE & MASTIC AND THIRD FLOOR TILE,984,t,2021-12-06,2022-02-04,ELIZABETH LETURGEY,f,f,2022-02-04,RES,COMPLETE,40.4948604168236,-79.8995233781234
1752075,RES220007,RESIDENCE,120  DUPONT CIR,MT LEBANON,15243,0,902,"AMERICAN CONTRACTING ENTERPRISES, INC.",REMOVE BASEMENT FLOOR TILE AND BASEMENT STEPS LINOLEUM,324,t,2022-01-21,2022-04-29,ELIZABETH LETURGEY,f,f,2022-04-29,RES,COMPLETE,40.3738198199568,-80.077455941848
1752076,RES200072,RESIDENCE,26  BUCKINGHAM PL,FOX CHAPEL,15215,0,922,"HEALTHY ENVIRONMENTS, LLC",REMOVE BASEMENT FLOOR TILE AND MASTIC,540,t,2021-01-07,2021-01-08,ELIZABETH LETURGEY,t,f,2021-01-08,RES,COMPLETE,40.5067349582615,-79.8986142856261
1752077,PAA190787,VACANT COMMERCIAL BUILDING,4112  BUTLER ST,PITTSBURGH,15201,1250,902,"AMERICAN CONTRACTING ENTERPRISES, INC.",REMOVE BASEMENT FLOOR TILE AND MASTIC,2691,f,2019-12-26,2020-01-31,MARC ITKIN,t,f,2020-01-31,PAA,COMPLETE,40.4698233637968,-79.9606137312604
1752078,RES210106,RESIDENCE,5  GREENWOOD RD,MCKEES ROCKS,15136,0,902,"AMERICAN CONTRACTING ENTERPRISES, INC.",REMOVE BASEMENT FLOOR TILE AND MASTIC,273,t,2021-10-12,2021-12-31,CALI FEENEY,t,f,2021-12-31,RES,COMPLETE,40.4766795931971,-80.0938864074424
1752079,RES220044,RESIDENCE,219  HUNT RD,PITTSBURGH,15215,0,902,"AMERICAN CONTRACTING ENTERPRISES, INC.",REMOVE BASEMENT FLOOR TILE AND MASTIC,405,t,2022-05-10,2022-09-02,AARON MAKATURA,f,f,2022-09-02,RES,COMPLETE,40.5155086867856,-79.9048803436715
1752080,UND210014,VERIZON - NORTH SIDE C.O. - 15 E MONTGOMERY AVENUE,,PITTSBURGH,15212,0,908,"BRISTOL ENVIRONMENTAL, INC.",REMOVE BASEMENT FLOOR TILE; MASTIC AND PIPE INSULATION,123,t,2021-04-19,2021-04-23,ELIZABETH LETURGEY,t,f,2021-04-23,UND,COMPLETE,40.483602079867,-80.0488610192284
1752081,PAA210475,VACANT OFFICE SPACE,3551  LAKETON RD,PITTSBURGH,15235,850,902,"AMERICAN CONTRACTING ENTERPRISES, INC.",REMOVE BASEMENT FLOOR TILE; MASTIC; PIPE & BOILER INSULATION,1796,f,2021-09-08,2021-12-31,JOE YAKUBISIN,t,f,2021-12-31,PAA,COMPLETE,40.4595299690942,-79.8442109418701
1752082,UND190130,RESIDENCE,110  ROYSTON RD,PITTSBURGH,15238,0,902,"AMERICAN CONTRACTING ENTERPRISES, INC.",REMOVE BASEMENT FLOOR TILES IN 2 ROOMS,630,f,2019-07-01,2019-08-30,JOE YAKUBISIN,t,f,2019-08-30,UND,COMPLETE,40.5080938789477,-79.8746939050851
1752083,DEM220191,VALLEY HOTEL,1004  NEW ENGLAND RD,JEFFERSON HILLS,15025,0,,,REMOVAL OF WINDOW GLAZING BY RITENOUR AND SONS CONSTRUCTION COMPANY; INC.,24,f,2022-09-15,2022-10-15,JOE YAKUBISIN,f,f,2022-10-15,DEM,COMPLETE,40.3191733911694,-79.8993677518399
1752084,PAA214452,VACANT RESIDENCE,652  BEATTY RD,MONROEVILLE,15146,1250,941,"PRISM RESPONSE, LLC DBA ALLOY",REMOVE  1ST FLOOR HALLWAY FLOOR TILE; BATHROOM SHEET FLOORING & WALL/CEILING PLASTER AND 1ST & 2ND FLOOR WALL/CEILING JOINT COMPOUND,4319,f,2021-08-24,2021-12-30,JOE YAKUBISIN,t,f,2021-12-30,PAA,COMPLETE,40.4479464247396,-79.7508153695458
1752085,PAA204004,BETTIS ATOMIC POWER LAB - CX BUILDING/TANK COMPLEX,814 PITTSBURGH MCKEESPORT BLVD,WEST MIFFLIN,15122,850,906,BWSR LLC.,REMOVE  PROCESS RM ROOF MASTIC & FLASHING; INT CONCRETE EXP JOINT MATERIAL; ELECTRICAL/MACHINERY WIRING & VALVE PACKING/GASKETING & EXT CAULKING; DUMP TANK COMPLEX ROOF TAR; INT VALVE PACKING/GASKETING & ELECTRICAL/MACH WIRING; EXT WALL SURFACE ROOF,2370,f,2020-02-05,2021-02-04,JOE YAKUBISIN,t,f,2021-02-04,PAA,COMPLETE,40.3572354645406,-79.8991410934409
1752086,PAA170476,PGH CRANE READINESS CTR,826 CRANE AVENUE,PITTSBURGH,15220,850,921,GRAY WASTE MANAGEMENT CORPORATION,REMOVE & DISPOSE OF ACOUSTICAL PLASTER CEILING SYSTEM; VAT MASTIC; & RELILIENT BASE ON THE 1ST & 2ND FLOORS OF THE NORTH & SOUTH WINGS.  REMOVE & DISPOSE OF PIPE INSULATION & FITTINGS IN THE 2ND FLOOR MAINTENANCE AREA.,11768,t,2017-08-14,2017-12-31,JOE YAKUBISIN,t,f,2017-12-31,PAA,COMPLETE,40.4425718034436,-80.0522248189848
1752087,PAA170630,COLDWELL BANKER-SQUIRREL HILL; 5887 FORBES AVENUE,,PITTSBURGH,15201,450,931,PHASE ONE DEVELOPMENT CORPORATION,REMOVE & DISPOSE OF FLOOR TILE & MASTIC,600,f,2017-11-17,2018-11-07,JOE YAKUBISIN,t,f,2018-11-07,PAA,COMPLETE,40.4601485577532,-79.9764922844475
1752088,PAA140351,VAMC PITTSBURGH,5243 UNIVERSITY C DR,PITTSBURGH,15213,650,901,"ABMECH ACQUISITIONS, LLC",FLOOR TILE/MASTIC;WALL MASTIC;TRANSITE;PIPE INSULATION IN BASEMENT;GROUND;1 - 11 FLOORS AND ROOFING,3272,t,2014-08-25,2015-08-25,JOE YAKUBISIN,t,f,2015-08-25,PAA,COMPLETE,40.4468003815638,-79.9622469774187
1752089,PAA150472,VAMC PITTSBURGH NUCLEAR MEDICINE,5243 UNIVERSITY C DR,PITTSBURGH,15213,650,901,"ABMECH ACQUISITIONS, LLC",FLOOR TILE/MASTIC;WALL MASTIC;TRANSITE;PIPE INSULATION ON BASEMENT;GROUND FLOOR;4TH;5TH;6TH;8TH;9TH;10TH AND 11TH FLOORS AND ROOFING,3272,t,2015-09-21,2016-09-21,JOE YAKUBISIN,t,f,2016-09-21,PAA,COMPLETE,40.4468003815638,-79.9622469774187
1752090,PAA170074,UPMC MERCY HOSPITAL,1400 LOCUST ST,PITTSBURGH,15219,450,940,"SPECTRUM ENVIRONMENTAL, LLC",FLOOR TILE/MASTICON 3RD FLOOR BREAKROOM AND WOMENS LOCKER ROOM,588,t,2017-02-08,2017-12-30,JOE YAKUBISIN,t,f,2017-12-30,PAA,COMPLETE,40.4360439740714,-79.9854587006851
1752091,UND190239,SAINT PHILLIP'S SCHOOL,52 W CRAFTON AVE,PITTSBURGH,15205,0,902,"AMERICAN CONTRACTING ENTERPRISES, INC.",FLOOR TILE; MASTIC AND PIPE INSULATION IN BACK STAIRWELL TO CAFETERIA,110,t,2019-12-11,2019-12-31,JOE YAKUBISIN,t,f,2019-12-31,UND,COMPLETE,40.4372259627199,-80.0682835916264
1752092,PAA170157,AHN WEST PENN HOSPITAL,4800 FRIENDSHIP AVE,PITTSBURGH,15224,850,908,"BRISTOL ENVIRONMENTAL, INC.",FLOOR TILE/MASTIC IN SUITS 432;434;435;437;438 AND 442,2000,t,2017-03-24,2017-06-30,JOE YAKUBISIN,t,f,2017-04-30,PAA,COMPLETE,40.4621317678598,-79.9462630434165
1752093,PAA170081,1461 CHICAGO STREET,,PITTSBURGH,15219,850,931,PHASE ONE DEVELOPMENT CORPORATION,FLOOR TILE/MASTIC ON 1ST AND 2ND FLOOR,1100,f,2017-02-10,2018-02-10,JOE YAKUBISIN,t,f,2018-02-10,PAA,COMPLETE,40.4430363971525,-80.0248548874816
1752094,PAA170080,745 MT. PLEASANT ROAD,,PITTSBURGH,15219,450,931,PHASE ONE DEVELOPMENT CORPORATION,FLOOR TILE/MASTIC ON 1ST AND 2ND FLOORS,950,t,2017-02-10,2018-02-10,JOE YAKUBISIN,t,f,2018-02-10,PAA,COMPLETE,40.4430363971525,-80.0248548874816
1752095,PAA160554,UPMC MERCY HOSPITAL,1400 LOCUST ST,PITTSBURGH,15219,650,940,"SPECTRUM ENVIRONMENTAL, LLC",FLOOR TILE/MASTIC ON 1ST FLOOR EXAM ROOMS 1-4;2ND FLOOR SUITE 200 AND SUITE 236 WAITING ROOM,1375,t,2016-12-12,2017-02-25,JOE YAKUBISIN,t,f,2017-02-25,PAA,COMPLETE,40.4360439740714,-79.9854587006851
1752096,PAA140192,CHURCH OF THE ASCENSION,4729 ELLSWORTH AVE.,PITTSBURGH,15213,150,927,KEY ASBESTOS ABATEMENT INC,FLOOR TILE/MASTIC ON 1ST FLOOR VESTIBULE AND HALLWAY,280,t,2014-05-19,2014-05-30,JOE YAKUBISIN,t,f,2014-05-30,PAA,COMPLETE,40.4491101078061,-79.9468242015151
1752097,PAA140476,,6014 PENN AVE.,PITTSBURGH,15206,650,921,GRAY WASTE MANAGEMENT CORPORATION,FLOOR TILE/MASTIC ON 1ST FLOOR;ROOFING AND PIPE INSULATION IN BASEMENT,7000,f,2014-12-01,2014-12-31,JOE YAKUBISIN,t,f,2014-12-31,PAA,COMPLETE,40.4610360105227,-79.9243049015735
1752098,PAA150293,HERITAGE PLACE,5701 PHILLIPS AVE.,PITTSBURGH,15217,650,940,"SPECTRUM ENVIRONMENTAL, LLC",FLOOR TILE/MASTIC ON 1ST;2ND AND 3RD FLOORS PATIENT ROOMS;CORRIDORS AND COMMON AREAS,45000,t,2015-06-22,2015-06-21,DON HORGAN,t,f,2015-06-21,PAA,COMPLETE,40.4318637883005,-79.9249537408965
1752099,PAA140051,CONSULATE HEALTH CARE OF CHESWICK,3876 SAXONBURG BLVD.,CHESWICK,15024,650,902,"AMERICAN CONTRACTING ENTERPRISES, INC.",FLOOR TILE/MASTIC ON 2ND AND 3RD FLOOR HALLWAYS,5111,t,2014-02-03,2014-12-31,JOE YAKUBISIN,t,f,2014-07-04,PAA,COMPLETE,40.5969035518939,-79.8716524328226
1752100,PAA150497,FORBES LAW OFFICE,428 FORBES AVE.,PITTSBURGH,15219,650,908,"BRISTOL ENVIRONMENTAL, INC.",FLOOR TILE/MASTIC ON 2ND AND 3RD FLOORS;ROOFING,11500,t,2015-10-19,2015-12-31,JOE YAKUBISIN,t,f,2015-12-31,PAA,COMPLETE,40.438825039758,-79.9981951252272
1752101,PAA204118,VACANT RESIDENCE,2613 S BRADDOCK AVE,PITTSBURGH,15218,1250,924,HUNT VALLEY ENVIRONMENTAL,REMOVE BASEMENT INSULATING TAPE AND KITCHEN/DININF/BEDROONS/BATH/ HALL DRYWALL/PLASTER,2958,f,2020-02-21,2020-06-01,JOE YAKUBISIN,t,f,2020-06-01,PAA,COMPLETE,40.4147626198955,-79.8766807403068
1752102,RES210044,RESIDENCE,128  BELL PARK DR,WEST VIEW,15229,0,941,"PRISM RESPONSE, LLC DBA ALLOY",REMOVE BASEMENT LAUNDRY & FURNACE ROOM FLOOR TILE AND MASTIC,245,t,2021-05-21,2021-05-21,ELIZABETH LETURGEY,t,f,2021-05-21,RES,COMPLETE,40.5081825467185,-80.0336539219922
1752103,PAA204317,VACANT RESIDENTIAL,824  ROMINE AVE,PORT VUE,15133,350,955,CONTINENTAL CONSTRUCTION & DEMOLITION,REMOVE BASEMENT LAUNDRY FLOOR TILE,400,f,2020-06-26,2020-07-15,JOE YAKUBISIN,t,f,2020-07-15,PAA,COMPLETE,40.34650689709,-79.872547762719
1752104,RES210090,RESIDENTIAL,55  HAUCK DR,PENN HILLS,15235,0,903,"AMERICAN INDUSTRIAL CONTRACTING, INC.",REMOVE BASEMENT LAUNDRY ROOM FLOOR TILE AND MASTIC,100,t,2021-09-10,2021-09-10,ELIZABETH LETURGEY,t,f,2021-09-10,RES,COMPLETE,40.4515822851929,-79.8241154950862
1752105,PAA200159,DEER LAKES PARK OFFICE BUILDING,1090  BAILEYS RUN RD,TARENTUM,15084,1250,911,"MASA, LLC DBA CANFIELD DEVELOPMENT",REMOVE BASEMENT LEVEL TRANSITE PANELS; 1ST1ST & 2ND FLOOR FLOOR TIEL & MASTIC; 1ST FLOOR LIGHT FIXTURE HEAT SHIELD AND EXTERIOR WINDOW & DOOR CAULKING,3407,f,2020-03-16,2020-03-27,JOE YAKUBISIN,t,f,2020-03-27,PAA,COMPLETE,40.6143837825049,-79.8147598609261
1752106,RES210047,RESIDENCE,6419  BARTLETT ST,PITTSBURGH,15217,0,902,"AMERICAN CONTRACTING ENTERPRISES, INC.",REMOVE BASEMENT MECHANICAL ROOM PIPE & FITTING INSULATION,162,t,2021-06-01,2021-10-01,CALI FEENEY,t,f,2021-10-01,RES,COMPLETE,40.4360683616476,-79.9170386889718
1752107,DEM190176,VACANT RESIDENCE,630  RIVERVIEW DR,DRAVOSBURG,15034,0,957,"RITENOUR AND SONS CONSTRUCTION COMPANY, INC.",REMOVE BASEMENT PAPER DUCT WORK BEHIND WALLS,80,f,2019-06-07,2019-10-15,JOE YAKUBISIN,t,f,2019-10-15,DEM,COMPLETE,40.355948169155,-79.8903193621975
1752108,UND190064,RESIDENCE,3730  LIBERTY AVE,PITTSBURGH,15201,0,922,"HEALTHY ENVIRONMENTS, LLC",REMOVE BASEMENT PAPER DUCT WRAP,60,t,2019-09-04,2019-09-04,SHANNON SANDBERG,t,f,2019-09-04,UND,COMPLETE,40.4620301248291,-79.9610434508953
1752109,DEM190175,VACANT RESIDENCE,618  RIVERVIEW DR,DRAVOSBURG,15034,0,957,"RITENOUR AND SONS CONSTRUCTION COMPANY, INC.",REMOVE BASEMENT PAPER ON DUCT WORK BEHIND WALLS,80,f,2019-06-07,2019-10-15,JOE YAKUBISIN,t,f,2019-10-15,DEM,COMPLETE,40.3550782006969,-79.8910731274635
1752110,PAA150538,,5235 THROUGH 5271 DYKE STREET 14 BUILDINGS,PITTSBURGH,15207,650,920,GENERAL CONTRACTING CORP. OF AMERICA,FLOOR TILE;WINDOW CAULKING;DUCT WRAP/PAPER AND ROOFING,2095,f,2015-11-25,2015-11-30,JOE YAKUBISIN,t,f,2015-11-30,PAA,COMPLETE,,
1752111,PAA140119,BOSSA NOVA,121 7TH AVE.,PITTSBURGH,15222,650,901,"ABMECH ACQUISITIONS, LLC",FLOOR TILE;WINDOWS AND PIPE INSULATION ON 1 THROUGH 6TH FLOORS. TRANSITE ON 3RD FLOOR AND BASEMENT,1435,f,2014-03-17,2015-03-04,JOE YAKUBISIN,t,f,2015-03-04,PAA,COMPLETE,40.4441910302313,-80.0004521237645
1752112,PAA140463,UPMC IROQUOIS BUILDING,3600 FORBES AVE,PITTSBURGH,15213,650,929,"NOVA ENVIRONMENTAL SERVICES, INC.",FLOORIMG ON 6TH FLOOR,1208,t,2014-11-25,2014-12-31,JOE YAKUBISIN,t,f,2014-12-31,PAA,COMPLETE,40.4402724391202,-79.9574438099624
1752113,PAA150116,,7100;7104;7119;7121 UPLAND STREET,PITTSBURGH,15208,650,951,"FIVE STAR CONSTRUCTION, INC.",FLOORING;DUCT TAPE;GREY INSULATION AND PLASTER,11109,f,2015-02-16,2015-03-31,JOE YAKUBISIN,t,f,2015-03-31,PAA,COMPLETE,,
1752114,PAA150109,PITTSBURGH WATER AND SEWER AUTHORITY,202 26TH STREET,PITTSBURGH,15222,650,930,"PENOCO, INC.",FLOORTILE/MASTIC IN HALLWAY AND OFFICES,4800,t,2015-02-25,2015-03-31,JOE YAKUBISIN,t,f,2015-03-31,PAA,COMPLETE,40.4546956905079,-79.978372614624
1752115,PAA160190,CARQUEST,10610  FRANKSTOWN RD,PENN HILLS,15235,650,938,TRITON HOLDINGS,FLOORTILE/MASTIC ON 1ST FLOOR,5850,f,2016-04-20,2016-05-30,JOE YAKUBISIN,t,f,2016-05-30,PAA,COMPLETE,40.4605890409954,-79.8420707549782
1752116,PAA160359,GREENTREE GARDENS BUILDING 4,833  GREENTREE RD,GREEN TREE,15220,150,902,"AMERICAN CONTRACTING ENTERPRISES, INC.",FOUNDATION WATERPROOFING,1344,f,2016-08-01,2016-12-31,JOE YAKUBISIN,t,f,2016-12-31,PAA,COMPLETE,40.4258061147535,-80.0415518048365
1752117,PAA150345,CARNEGIE MELLON UNIVERSITY - MELLON INSTITUTE,4400 FIFTH AVE.,PITTSBURGH,15213,150,927,KEY ASBESTOS ABATEMENT INC,FUME HOOD IN ROOM 846,220,t,2015-07-13,2015-08-30,DON HORGAN,t,f,2015-08-30,PAA,COMPLETE,40.4461195669321,-79.9510604617804
1752118,PAA140195,BLIND AND VISION REHABILITAYION SERVICES PO PITTSBURGH,1816 LOCUST STREET,PITTSBURGH,15219,650,905,"BLT CONTRACTING, INC.",GASKETS IN BOILER ROOM;VAT/MASTIC ON 1ST;2ND AND 3RD FLOORS;PIPE ON 1ST FLOOR AND WALL COATING ON ELEVATOR ROOMS/ROOF,1940,t,2014-05-16,2015-04-30,JOE YAKUBISIN,t,f,2015-04-30,PAA,COMPLETE,40.4364286197119,-79.9806164660764
1752119,PAA140374,UNIVERSITY OF PITTSBURGH MEDICAL CENTER - PRESBY,200 LOTHROP ST,PITTSBURGH,15213,150,940,"SPECTRUM ENVIRONMENTAL, LLC",FLOOR TILE/MASTIC ON 2ND FLOOR - C2000 CORRIDOR,2400,t,2014-09-16,2015-01-30,JOE YAKUBISIN,t,f,2014-12-30,PAA,COMPLETE,40.4422470230786,-79.9609286975283
1752120,PAA160296,LEVIN HARDWARE AND CLUB LANES,337 E 8TH AVE,HOMESTEAD,15120,650,938,TRITON HOLDINGS,FLOOR TILE/MASTIC ON 2ND FLOOR BOWLING ALLEY;WEST MEZZANINE;NORTH EAST BASEMENT;FLOOR TILE ON EAST MEZZANIE;TSI IN NORTH EAST BASEMENT AND CEILING PLASTER IN BASEMENT,3202,f,2016-07-04,2017-06-30,JOE YAKUBISIN,t,f,2016-06-30,PAA,COMPLETE,40.4086261352173,-79.9081824459211
1752121,PAA150170,ST.STEPHEN EPISCOPAL CHURCH,220 EIGHTH STREET,MCKEESPORT,15132,150,905,"BLT CONTRACTING, INC.",FLOOR TILE/MASTIC ON 2ND FLOOR COMPUTER ROOM,190,t,2015-04-15,2015-12-31,JOE YAKUBISIN,t,f,2015-12-31,PAA,COMPLETE,40.347812793618,-79.8649786428837
1752122,PAA160119,UPMC/IROQUIS BUILDING,3600  5TH AVE,PITTSBURGH,15213,650,928,NORTHSTAR CONTRACTING GROUP INC,FLOOR TILE/MASTIC ON 2ND FLOOR CORRIDOR AND OFFICES,2000,t,2016-03-21,2016-05-31,JOE YAKUBISIN,t,f,2016-03-11,PAA,COMPLETE,40.4411824033977,-79.9588956703425
1752123,PAA140395,ALLEGHENY COUNTY AIRPORT,12 ALLEGHENY COUNTY AIRPORT,WEST MIFFLIN,15122,650,901,"ABMECH ACQUISITIONS, LLC",FLOOR TILE/MASTIC ON 2ND FLOOR HALLWAY AND OFFICES,2300,t,2014-10-13,2015-06-29,JOE YAKUBISIN,t,f,2015-06-29,PAA,COMPLETE,40.3523727731195,-79.9270812453475
1752124,PAA160221,USPS - PITTSBURGH PROCESSING AND DISTRIBUTION CENTER,950  CALIFORNIA AVE,PITTSBURGH,15290,350,941,"PRISM RESPONSE, LLC DBA ALLOY",FLOOR TILE/MASTIC ON 2ND FLOOR ROOM 2064,800,t,2016-05-09,2016-06-30,JOE YAKUBISIN,t,f,2016-06-30,PAA,COMPLETE,40.4590035563408,-80.0205143077926
1752125,PAA140273,HERITAGE PLACE,5701 PHILLIPS AVE.,PITTSBURGH,15217,650,940,"SPECTRUM ENVIRONMENTAL, LLC",FLOOR TILE/MASTIC ON 3RD FLOOR,15000,t,2014-07-08,2014-12-15,JOE YAKUBISIN,t,f,2014-12-15,PAA,COMPLETE,40.4318637883005,-79.9249537408965
1752126,PAA150048,YMCA EAST LIBERTY,120 S.WHITFIELD STREET,PITTSBURGH,15206,360,911,"MASA, LLC DBA CANFIELD DEVELOPMENT",FLOOR TILE/MASTIC ON 3RD FLOOR,400,t,2015-01-22,2015-01-29,JOE YAKUBISIN,t,f,2015-01-29,PAA,COMPLETE,40.4612936394196,-79.9262117342601
1752127,PAA140152,WEXFORD HOUSE,9850 OLD PERRY HIGHWAY,WEXFORD,15090,150,905,"BLT CONTRACTING, INC.",FLOOR TILE/MASTIC ON 3RD FLOOR CORRIDOR,2400,t,2014-04-08,2014-11-21,JOE YAKUBISIN,t,f,2014-11-21,PAA,COMPLETE,40.5882805726797,-80.043731321735
1752128,RES210048,RESIDENCE,624  PITCAIRN PL,PITTSBURGH,15232,0,922,"HEALTHY ENVIRONMENTS, LLC",REMOVE BASEMENT PIPE INSULATION,160,t,2021-06-08,2021-06-11,ELIZABETH LETURGEY,t,f,2021-06-11,RES,COMPLETE,40.4509057186041,-79.9397779775035
1752129,RES210071,RESIDENCE,2701  5TH AVE,PITTSBURGH,15213,0,902,"AMERICAN CONTRACTING ENTERPRISES, INC.",REMOVE BASEMENT PIPE INSULATION,120,t,2021-07-21,2021-11-05,ELIZABETH LETURGEY,t,f,2021-11-05,RES,COMPLETE,40.4376030652748,-79.9656998678031
1752130,RES220008,RESIDENCE,535  UNDERCLIFF RD,PITTSBURGH,15221,0,902,"AMERICAN CONTRACTING ENTERPRISES, INC.",REMOVE BASEMENT PIPE INSULATION,206,t,2022-03-01,2022-04-29,ELIZABETH LETURGEY,f,f,2022-04-29,RES,COMPLETE,40.4406726482941,-79.8999096529691
1752131,RES210026,RESIDENCE - 421-423 LAMAR AVENUE,421  LAMAR AVE,PITTSBURGH,15221,0,902,"AMERICAN CONTRACTING ENTERPRISES, INC.",REMOVE BASEMENT STEPS FLOOR TILE & MASTIC AND BASEMENT DUCT SEAM TAPE IN BOTH 421 & 423 LAMAR AVENUE,35,t,2021-04-05,2021-07-30,ELIZABETH LETURGEY,t,f,2021-07-30,RES,COMPLETE,40.4382769617617,-79.8890605672728
1752132,UND200008,WESLEY ZION APARTMENTS,2800  CENTRE AVE,PITTSBURGH,15219,0,941,"PRISM RESPONSE, LLC DBA ALLOY",REMOVE BASEMENT WATER TANK INSULATION,140,t,2020-01-28,2020-01-29,ELIZABETH LETURGEY,t,f,2020-01-29,UND,COMPLETE,40.4476538556454,-79.9663524209255
1752133,PAA220265,SEEWICKLEY METHODIST CHURCH,337 BROAD ST,SEWICKLEY,15143,1250,916,DIVERSIFIED RESTORATION INNOVATIONS,REMOVE BASEMENTR HALLWAYS & ROOMS FLOOR TILE AND MASTIC,3445,f,2022-06-10,2023-06-01,JOE YAKUBISIN,t,f,2023-06-01,PAA,COMPLETE,40.5393150883609,-80.1822194836519
1752134,DEM190229,338 COXCOMB HILL ROAD,,PLUM,15239,0,941,"PRISM RESPONSE, LLC DBA ALLOY",REMOVE BATHROOM FLOOR TILE,50,f,2019-02-11,2019-02-28,JOE YAKUBISIN,t,f,2019-02-28,DEM,COMPLETE,40.4921455851806,-79.7848283940866
1752135,UND210103,NORTHVIEW HEIGHTS BUILDING 6 UNIT #312,725  MT PLEASANT RD,PITTSBURGH,15214,0,931,PHASE ONE DEVELOPMENT CORPORATION,REMOVE BATHROOM FLOOR TILE AND MASTIC,25,t,2021-10-26,2022-10-26,JOE YAKUBISIN,t,f,2022-10-26,UND,COMPLETE,40.4753865049504,-79.9980068634169
1752136,DEM200064,VACANT RESIDENCE,211  MARIE AVE,AVALON,15202,0,921,GRAY WASTE MANAGEMENT CORPORATION,REMOVE BATHROOM LINOLEUM AND BASEMENT DUCT SEAM TAPE,60,f,2020-05-27,2021-05-26,CALI FEENEY,t,f,2021-05-26,DEM,COMPLETE,40.5042282730843,-80.0731566164075
1752137,PAA140325,PPG INDUSTRIES;INDC,400 GUYS RUN ROAD,CHESWICK,15024,150,902,"AMERICAN CONTRACTING ENTERPRISES, INC.",FLOOR TILE/MASTIC ON 3RD FLOOR RENOVATION AREA,580,t,2014-07-25,2015-05-29,JOE YAKUBISIN,t,f,2014-08-01,PAA,COMPLETE,40.55661298228,-79.8663177401905
1752138,PAA150232,UPMC - MERCY,1400 LOCUST STREET,PITTSBURGH,15219,150,928,NORTHSTAR CONTRACTING GROUP INC,FLOOR TILE/MASTIC ON 3RD FLOOR ROOM 3526,450,t,2015-05-08,2015-05-11,JOE YAKUBISIN,t,f,2015-05-11,PAA,COMPLETE,40.4360439740714,-79.9854587006851
1752139,PAA150105,ACAA - ALEGHENY COUNTY AIRPORT FAA OFFICES,12 ALLEGHENY COUNTY AIRPORT,WEST MIFFLIN,15122,150,901,"ABMECH ACQUISITIONS, LLC",FLOOR TILE/MASTIC ON 3RD FLOOR; STORAGE ROOM,200,t,2015-01-26,2015-01-31,JOE YAKUBISIN,t,f,2015-01-31,PAA,COMPLETE,40.3523727731195,-79.9270812453475
1752140,PAA140050,FIRST NATIONAL BANK,100 FEDERAL STREET,PITTSBURGH,15212,650,903,"AMERICAN INDUSTRIAL CONTRACTING, INC.",FLOOR TILE/MASTIC ON 3RD FLOOR;FIREPROOFING 2ND;3RD AND 4TH FLOORS,18950,t,2014-02-04,2014-12-31,JOE YAKUBISIN,t,f,2014-12-31,PAA,COMPLETE,40.4477993564896,-80.0037669983711
1752141,PAA150402,UPMC - KAUFMAN BUILDING,3471 5TH AVE,PITTSBURGH,15213,650,940,"SPECTRUM ENVIRONMENTAL, LLC",FLOOR TILE/MASTIC ON 4TH FLOOR - SUITE 402,6400,t,2015-08-17,2015-12-30,JOE YAKUBISIN,t,f,2015-12-30,PAA,COMPLETE,40.4404729263522,-79.9607167849668
1752142,PAA140096,JEFFERSON REGIONAL MEDICAL CENTER,565 COAL VALLEY ROAD,JEFFERSON HILLS,15025,150,901,"ABMECH ACQUISITIONS, LLC",FLOOR TILE/MASTIC ON 4TH FLOOR S.EAST;3RD FLOOR CAFÉ AND 5TH FLOOR SOUTH /SOUTHEAST CAFÉ,1200,t,2014-03-03,2014-10-28,JOE YAKUBISIN,t,f,2014-10-28,PAA,COMPLETE,40.3179030628942,-79.9336525202663
1752143,PAA140230,WEST PENN HOSPITAL,4800 FRIENDSHIP AVE.,PITTSBURGH,15224,650,903,"AMERICAN INDUSTRIAL CONTRACTING, INC.",FLOOR TILE/MASTIC ON 5TH FLOOR EAST;ELEVATOR LOBBY/LOUNGE AND 6TH FLOOR EAST-POST PARTUM,10000,t,2014-06-11,2014-12-31,DON HORGAN,t,f,2014-12-31,PAA,COMPLETE,40.4621317678598,-79.9462630434165
1752144,PAA150558,CHAMBER OF COMMERCE BUILDING,411 SEVENTH AVE,PITTSBURGH,15219,150,941,"PRISM RESPONSE, LLC DBA ALLOY",FLOOR TILE/MASTIC ON 8TH FLOOR KITCHEN AREA,480,f,2015-12-15,2015-12-30,JOE YAKUBISIN,t,f,2015-12-30,PAA,COMPLETE,40.4428679141945,-79.9962944234681
1752145,PAA160298,UPMC MONTEFIORE? HOSPITAL,3459 5TH AVE,PITTSBURGH,15213,650,940,"SPECTRUM ENVIRONMENTAL, LLC",FLOOR TILE/MASTIC ON 8TH FLOOR SELECT SPECIALTY,13677,t,2016-07-04,2016-12-31,JOE YAKUBISIN,t,f,2016-12-31,PAA,COMPLETE,40.4403592216973,-79.9614238732971
1752146,PAA170071,1139 - 1165 SOUTH AVE.,1139  SOUTH AVE,WILKINSBURG,15221,850,920,GENERAL CONTRACTING CORP. OF AMERICA,DUCT WRAP;FLOOR TILE;CAULKING;TRANSITE AND ROOFING,5885,f,2017-02-03,2017-02-18,JOE YAKUBISIN,t,f,2017-02-18,PAA,COMPLETE,40.4392715377489,-79.8771412752941
1752147,PAA190550,RESIDENTIAL PROJECT,513  JACKSONIA ST,PITTSBURGH,15212,450,913,CENTIMARK CORPOATION,DUE TO RENOVATION ABATEMENT IS NECESSARY,1052,f,2019-08-05,2020-08-05,SHANNON SANDBERG,t,f,2020-08-05,PAA,COMPLETE,40.4572418830717,-80.0125773914651
1752148,PAA170375,904 CONSTANCE STREET; PITTSBURGH; PA 15212,904  CONSTANCE ST,PITTSBURGH,15212,850,921,GRAY WASTE MANAGEMENT CORPORATION,EMERGENCY DEMOLITION,702,f,2017-06-30,2017-08-31,JOE YAKUBISIN,t,f,2017-08-31,PAA,COMPLETE,40.4565028615896,-79.9941420253164
1752149,DEM200219,VACANT RESIDENCE (CITY OF PITTSBURGH ORDERED DEMOLITION),133  MEADOW ST,PITTSBURGH,15206,0,920,GENERAL CONTRACTING CORP. OF AMERICA,EMERGENCY DEMOLITION OF STRUCTURE AND GRADING OF LOT,,f,2019-09-02,2019-09-10,ELIZABETH LETURGEY,t,f,2019-09-10,DEM,COMPLETE,40.4646798654089,-79.9135573981082
1752150,PAA220068,TREASURE HOUSE FASIONS,7607  MCKNIGHT RD,PITTSBURGH,15237,1250,905,"BLT CONTRACTING, INC.",EMOVE B-ROOM FLOOR TILE AND MASTIC,2500,f,2022-02-04,2022-12-30,JOE YAKUBISIN,t,f,2022-12-30,PAA,COMPLETE,40.5444018910437,-80.0158032068185
1752151,PAA214456,VACANT RESIDENTIAL,516  PARK ST,MCKEESPORT,15132,350,902,"AMERICAN CONTRACTING ENTERPRISES, INC.",ENTIRE BUILDING BEING TREATED AS ACM,7214,f,2021-08-16,2021-11-05,JOE YAKUBISIN,t,f,2021-11-05,PAA,COMPLETE,40.3505801503505,-79.85119597776
1752152,RES220013,RESIDENCE,404  WOODWARD AVE,MCKEES ROCKS,15136,0,921,GRAY WASTE MANAGEMENT CORPORATION,ENTIRE BUILDING BEING TREATED AS ACM,1364,f,2022-02-23,2023-02-22,JOE YAKUBISIN,f,f,2023-02-22,RES,COMPLETE,40.4695343565484,-80.0678328666597
1752153,PAA204369,,311  5TH AVE,BRADDOCK,15104,350,921,GRAY WASTE MANAGEMENT CORPORATION,ENTIRE BUILDING TO BE TREATED AS ACM,2800,f,2020-07-14,2021-07-13,JOE YAKUBISIN,t,f,2021-07-13,PAA,COMPLETE,40.4137397378758,-79.8808315596857
1752154,PAA204119,VACANT RESIDENCE,2621 S BRADDOCK AVE,PITTSBURGH,15218,1250,924,HUNT VALLEY ENVIRONMENTAL,REMOVE DININGROOM; LIVING ROOM; BEDROOMS AND HALL PLASTER; ROOF SHINGLES AND SECOND BATHROOM FLOOR TILE,3598,f,2020-02-21,2020-06-01,JOE YAKUBISIN,t,f,2020-06-01,PAA,COMPLETE,,
1752155,RES220015,RESIDENCE,408  OAKHURST AVE,NORTH VERSAILLES,15137,0,902,"AMERICAN CONTRACTING ENTERPRISES, INC.",REMOVE BEDROOM FLOOR TILE AND MASTIC,168,t,2022-02-16,2022-02-28,ELIZABETH LETURGEY,f,f,2022-02-28,RES,COMPLETE,40.3671566926905,-79.8260296231693
1752156,DEM220055,KLEINS FLOWER SHOP,3912  BROWNSVILLE RD,BRENTWOOD,15227,0,913,CENTIMARK CORPOATION,REMOVE BLACK GLUE DOTS AND BROWN CAULKING,109,f,2022-04-11,2022-04-15,ELIZABETH LETURGEY,t,f,2022-04-15,DEM,COMPLETE,40.3683876814117,-79.9776722312819
1752157,DEM190170,VACANT RESIDENCE,1834  BEECH ST,MCKEESPORT,15132,0,941,"PRISM RESPONSE, LLC DBA ALLOY",NACM FOUND – DEMOLISH STRUCTURE AND GRADE LOT,1000,f,2019-06-17,2019-06-21,MARC ITKIN,t,f,2019-06-21,DEM,COMPLETE,40.3407950062088,-79.8558135085541
1752158,DEM190172,VACANT RESIDENCE,1832  FEDERAL ST,MCKEESPORT,15132,0,941,"PRISM RESPONSE, LLC DBA ALLOY",NACM FOUND – DEMOLISH STRUCTURE AND GRADE LOT,1000,f,2019-06-17,2019-06-21,MARC ITKIN,t,f,2019-06-21,DEM,COMPLETE,40.3396550513419,-79.8515877971752
1752159,DEM220142,VACANT OFFICE,641  WASHINGTON RD,MT LEBANON,15228,0,955,CONTINENTAL CONSTRUCTION & DEMOLITION,NO ACM FOUND,,f,2022-07-15,2022-07-29,JOE YAKUBISIN,f,f,2022-07-29,DEM,COMPLETE,40.3819610036401,-80.0438451451756
1752160,DEM220058,BEST DEAL TIRE CENTER CANOPY,89 CLEVER RD,PITTSBURGH,15136,0,,,NO ACM FOUND,0,f,2022-04-20,2022-04-30,ELIZABETH LETURGEY,f,f,2022-04-30,DEM,COMPLETE,40.4695399613854,-80.0996402903835
1752161,DEM220150,MUNICIPALITY REGULATED PROPERTY,1072  PARK AVENUE EXT,BRADDOCK HILLS,15221,0,,,NO ACM FOUND,,f,2022-08-05,2022-08-18,CALI FEENEY,f,f,2022-08-18,DEM,COMPLETE,40.4168451845448,-79.8659713087237
1752162,DEM220151,MUNICIPALITY REGULATED PROPERTY,553  NEGLEY AVE,TURTLE CREEK,15145,0,,,NO ACM FOUND,,f,2022-08-23,2023-08-22,KIMBERLY CAMPBELL,f,f,2023-08-22,DEM,COMPLETE,40.4125062334216,-79.8273893868199
1752163,DEM220152,MUNICIPALITY REGULATED PROPERTY,561  NEGLEY AVE,TURTLE CREEK,15145,0,,,NO ACM FOUND,,f,2022-08-22,2022-08-21,AARON MAKATURA,f,f,2022-08-21,DEM,COMPLETE,40.412783250418,-79.8272233373702
1752164,PAA160220,KITMANS,220  NORTH AVE,MILLVALE,15209,150,912,"CARL FRANK INDUSTRIES, INC.",GLUE DOTS ON OUTSIDE FAÇADE,175,t,2016-05-16,2016-08-30,JOE YAKUBISIN,t,f,2016-08-30,PAA,COMPLETE,40.4812390833161,-79.9743935440203
1752165,PAA160009,IPS PENN COIL,1000 OHIO AVE,PITTSBURGH,15045,650,941,"PRISM RESPONSE, LLC DBA ALLOY",INSULATING TAPE O&M PLAN,,t,2016-01-01,2016-12-31,JOE YAKUBISIN,t,f,2016-12-31,PAA,COMPLETE,40.3183246196336,-79.8911453203049
1752166,PAA150320,EXCEL CHILDREN'S ACADEMY,101 BONVUE STREET,PITTSBURGH,15214,650,921,GRAY WASTE MANAGEMENT CORPORATION,INTERNAL BOILER COMPONENTS; VAT/MASTIC; WINDOW GLAZING AND ROOFING MATERIAL,11000,f,2015-06-11,2015-12-31,MARC ITKIN,t,f,2015-12-31,PAA,COMPLETE,40.4900983923715,-80.016833366937
1752167,PAA204478,VACANT RESIDENCE,1301  UNION ST,MCKEESPORT,15132,350,941,"PRISM RESPONSE, LLC DBA ALLOY",JOB CANCELLED - UNSAFE STRUCTURE - ENTIRE BUILDING TO BE TREATED AS ACM,1000,f,2020-10-26,2021-10-26,JOE YAKUBISIN,t,t,2020-12-28,PAA,COMPLETE,40.3463938916643,-79.8545600526347
1752168,PAA150450,FORMER PLUM S.D. ADMIN. BLDG.,100 SCHOOL ROAD,PLUM,15239,650,956,A. W. MCNABB LLC,JOINT COMPOUND IN BASEMENT AND FLOOR TILE IN BASEMENT;1ST FLOOR RESTROOM,2190,f,2015-09-08,2016-02-27,JOE YAKUBISIN,t,f,2016-02-27,PAA,COMPLETE,40.4937814124363,-79.754250371223
1752169,PAA150344,CARNEIGE MELLON UNIVERSITY - HAMERSCHLAG HALL,5000 FORBES AVE.,PITTSBURGH,15213,350,927,KEY ASBESTOS ABATEMENT INC,LAB TOPS;FUME HOOD IN ROOMS B107;B109 AND FLOOR TILE/MASTIC IN ROOMS B105;B107;B109;ADJACENT HALLWAY/STAIRWELL,910,t,2015-07-13,2015-08-30,DON HORGAN,t,f,2015-08-30,PAA,COMPLETE,40.4442129846549,-79.94339909741
1752170,PAA170098,CONSOL ENERGY - LAB BUILDING,4000 BROWNSVILLE RD,SOUTH PARK,15129,850,920,GENERAL CONTRACTING CORP. OF AMERICA,LAB TOPS;TRANSITE HOODS AND MASTIC IN LAB ROOMS,12950,f,2017-02-13,2017-03-31,JOE YAKUBISIN,t,f,2017-03-31,PAA,COMPLETE,40.2862304443734,-80.0180060600832
1752171,PAA140329,PITT OHIO TERMINAL BUILDING,15 27TH ST,PITTSBURGH,15222,150,929,"NOVA ENVIRONMENTAL SERVICES, INC.",LINOLEUM IN 2ND FLOOR RESTROOMS,250,t,2014-08-18,2014-12-31,JOE YAKUBISIN,t,f,2014-12-31,PAA,COMPLETE,40.4582617462303,-79.979084657907
1752172,PAA150241,ALLEGHENY CENTER,10 ALLEGHENY CENTER,PITTSBURGH,15212,650,941,"PRISM RESPONSE, LLC DBA ALLOY",LINOLEUM IN RESTROOM AND FLOOR TILE THROUGH THE SPACE CVS,4600,t,2015-05-26,2015-07-30,JOE YAKUBISIN,t,f,2015-07-30,PAA,COMPLETE,40.4519174333266,-80.0070278325912
1752173,UND200057,PITTSBURGH PUBLIC SCHOOLS GREENFIELD PRE K-8,1 ALGER ST,PITTSBURGH,15207,0,921,GRAY WASTE MANAGEMENT CORPORATION,REMOVE DOOR CAULKING IN TOILET ROOMS 100BT; 100GT; 200BT; 200GT; 300BR & 300GT AND PIPE FITTING & INSULATION,110,t,2020-05-26,2021-05-25,ELIZABETH LETURGEY,t,f,2021-05-25,UND,COMPLETE,40.4265255567015,-79.9446749171604
1752174,PAA210531,,4737 BUTLER ST,PITTSBURGH,15201,200,921,GRAY WASTE MANAGEMENT CORPORATION,REMOVE DRYWALL & JOINT COMPOUND REMNANT AND DEBRIS IN ROOM #15,225,f,2021-10-15,2022-10-14,JOE YAKUBISIN,t,f,2022-10-14,PAA,COMPLETE,40.475122983596,-79.9578485472721
1752175,PAA200280,CITIZENS BANK PLEASANT HILLS - 50 OLD CLAIRTON ROAD,,PITTSBURGH,15236,1250,908,"BRISTOL ENVIRONMENTAL, INC.",REMOVE DRYWALL JOINT COMPOUND ON FIRST FLOOR AND IN BASEMENT; FLOOR TILE; MASTIC; CERAMIC TILE AND VAPOR BARRIER ON FIRST FLOOR,4135,t,2020-06-12,2020-09-13,JOE YAKUBISIN,t,t,2020-06-27,PAA,COMPLETE,40.3490702946423,-79.9735542694596
1752176,UND190052,RESIDENCE,1308 DENNISTON ST,PITTSBURGH,15217,0,927,KEY ASBESTOS ABATEMENT INC,REMOVE DUCT INSULATION IN BASEMENT,150,t,2019-03-18,2019-03-19,JOE YAKUBISIN,t,f,2019-03-19,UND,COMPLETE,40.4456190319207,-79.9199867674244
1752177,PAA180360,1505 MIFFLIN STREET - HOMESTEAD; PA 15126,,PITTSBURGH,15126,450,915,DJ DEMO COMPANY,REMOVE DUCT SEAM TAPE FROM 3 VERTICAL VENT PIPES; SHINGLES FROM ROOF; & SEET FLOORING IN THE STAIRWELL TO THE ATTIC,930,f,2018-06-14,2018-06-28,DON HORGAN,t,f,2018-06-28,PAA,COMPLETE,40.4624836486389,-80.2675749720863
1752178,PAA170640,121 MILLBRIDGE STREET,121  MILLBRIDGE ST,PITTSBURGH,15210,850,920,GENERAL CONTRACTING CORP. OF AMERICA,REMOVE DUCT SEAM TAPE FROM KITCHEN BEHIND PLASTER WALL & PALSTER THROUGHOUT,7020,f,2017-12-01,2017-12-05,JOE YAKUBISIN,t,f,2017-12-05,PAA,COMPLETE,40.4212231771125,-79.9957972588667
1752179,UND190053,RESIDENCE,800  12TH ST,OAKMONT,15139,0,902,"AMERICAN CONTRACTING ENTERPRISES, INC.",REMOVE DUCT TAPE FROM BASEMENT,10,t,2019-03-18,2019-05-17,JOE YAKUBISIN,t,f,2019-05-17,UND,COMPLETE,40.5221721215668,-79.8287764670825
1752180,DEM190102,VACANT RESIDENCE,2205  JENNY LIND ST,MCKEESPORT,15132,0,941,"PRISM RESPONSE, LLC DBA ALLOY",REMOVE DUCT WRAP FROM BASEMENT,30,f,2019-04-01,2019-04-05,MARC ITKIN,t,f,2019-04-05,DEM,COMPLETE,40.3387100088711,-79.850418158467
1752181,PAA150493,GATEWAY CENTER BUILDING 1,603 STANWIX STREET,PITTSBURGH,15222,650,940,"SPECTRUM ENVIRONMENTAL, LLC",FLOOR TILE/MASTIC ON 13TH FLOOR,11000,f,2015-10-16,2015-12-31,JOE YAKUBISIN,t,f,2015-12-31,PAA,COMPLETE,40.4422341420667,-80.0045902640842
1752182,DEM220168,MAX & ERMA'S RESTAURANT,130 ANDREW DR,ROBINSON,15275,0,,,NO ACM FOUND,,f,2022-09-02,2023-09-01,NICHOLAS DELPHIA,f,f,2023-09-01,DEM,COMPLETE,40.4517663596503,-80.17584879692
1752183,SEM220075,,404  MARGARET ST,BRIDGEVILLE,15017,0,,,NO ACM FOUND,,f,2022-05-25,2022-07-20,CALI FEENEY,f,f,2022-07-20,SEM,COMPLETE,40.3583313632314,-80.1094405914407
1752184,DEM220213,CITY OF MCKEESPORT REGULATED PROPERTY,2613  STEWART ST,MCKEESPORT,15132,0,,,NO ACM FOUND - DEMOLITION BY TRIFECTA,,f,2022-10-24,2023-10-23,NICHOLAS DELPHIA,f,f,2023-10-23,DEM,COMPLETE,40.34301754848,-79.8462181826292
1752185,DEM220214,CITY OF MCKEESPORT REGULATED PROPERTY,1810  SOLES ST,MCKEESPORT,15132,0,,,NO ACM FOUND - DEMOLITION BY TRIFECTA,,f,2022-10-24,2023-10-23,NICHOLAS DELPHIA,f,f,2023-10-23,DEM,COMPLETE,40.3395629885749,-79.8485776208457
1752186,DEM220221,CITY OF MCKEESPORT REGULATED PROPERTY,1214  SUMAC ST,MCKEESPORT,15132,,,,NO ACM FOUND - DEMOLITION BY TRIFECTA,,f,2022-10-24,2023-10-23,KIMBERLY CAMPBELL,f,f,2023-10-23,DEM,COMPLETE,40.3445781267578,-79.8411865881117
1752187,DEM220222,CITY OF MCKEESPORT REGULATED PROPERTY,3710  WOODLAND AVE,MCKEESPORT,15132,0,,,NO ACM FOUND - DEMOLITION BY TRIFECTA,,f,2022-10-24,2023-10-23,KIMBERLY CAMPBELL,f,f,2023-10-23,DEM,COMPLETE,40.3375691980338,-79.833048671417
1752188,DEM220230,CITY OF MCKEESPORT REGULATED PROPERTY,2208  BOWMAN AVE,MCKEESPORT,15132,0,,,NO ACM FOUND - DEMOLITION BY TRIFECTA,,f,2022-10-24,2023-10-23,AARON MAKATURA,f,f,2023-10-23,DEM,COMPLETE,40.3555722108075,-79.8391767577892
1752189,DEM220231,CITY OF MCKEESPORT REGULATED PROPERTY,412  PACIFIC AVE,MCKEESPORT,15132,0,,,NO ACM FOUND - DEMOLITION BY TRIFECTA,,f,2022-10-24,2023-10-23,AARON MAKATURA,f,f,2023-10-23,DEM,COMPLETE,40.3500139716855,-79.8766190288961
1752190,DEM190174,VACANT RESIDENCE,2000  FEDERAL ST,MCKEESPORT,15132,0,941,"PRISM RESPONSE, LLC DBA ALLOY",NO ACM FOUND – DEMOLISH STRUCTURE AND GRADE LOT,900,f,2019-06-17,2019-06-21,MARC ITKIN,t,f,2019-06-21,DEM,COMPLETE,40.3382451148545,-79.8522900818991
1752191,DEM190178,VACANT RESIDENCE,1811  FEDERAL ST,MCKEESPORT,15132,0,941,"PRISM RESPONSE, LLC DBA ALLOY",NO ACM FOUND – DEMOLISH STRUCTURE AND GRADE LOT,900,f,2019-06-17,2019-06-21,MARC ITKIN,t,f,2019-06-21,DEM,COMPLETE,40.340366807994,-79.8512123987639
1752192,UND190109,RESIDENCE,5231  FIELDCREST DR,PITTSBURGH,15236,0,902,"AMERICAN CONTRACTING ENTERPRISES, INC.",REMOVE BASEMENT FLOOR TILE AND MASTIC,246,t,2019-06-04,2019-08-30,JOE YAKUBISIN,t,f,2019-08-30,UND,COMPLETE,40.3558704174513,-80.0039662763359
1752193,RES210043,RESIDENCE,3606  TRAUTMAN ST,MUNHALL,15120,0,902,"AMERICAN CONTRACTING ENTERPRISES, INC.",REMOVE BASEMENT FLOORING,504,t,2021-05-17,2021-10-01,ELIZABETH LETURGEY,t,f,2021-10-01,RES,COMPLETE,40.3852592969084,-79.9064254454078
1752194,PAA180638,NEW COVENANT CHURCH,2225  GRANDVIEW AVE,MONROEVILLE,15146,850,941,"PRISM RESPONSE, LLC DBA ALLOY",REMOVE BASEMENT FLOORING AND PIPE INSULATION,2505,t,2018-11-12,2018-12-20,JOE YAKUBISIN,t,f,2018-12-20,PAA,COMPLETE,40.4103120364981,-79.7671126902859
1752195,RES220050,RESIDENCE,2315  BERKSHIRE DR,UPPER ST CLAIR,15241,0,941,"PRISM RESPONSE, LLC DBA ALLOY",REMOVE BASEMENT FLOORTILE AND MASTIC,285,t,2022-06-04,2022-06-04,JOE YAKUBISIN,f,f,2022-06-04,RES,COMPLETE,40.3247492119885,-80.0741621012401
1752196,DEM190336,VACANT BUILDING,8518  PERRY HWY,PITTSBURGH,15237,0,925,"KLA ROOFING & CONSTRUCTION, LLC",REMOVE BASEMENT HEAT DUCT TAPE,25,f,2019-12-11,2019-12-11,MARC ITKIN,t,f,2019-12-11,DEM,COMPLETE,40.5610300358393,-80.0394076275729
1752197,PAA204346,FAMILY HOUSE,233  MCKEE PL,PITTSBURGH,15213,850,908,"BRISTOL ENVIRONMENTAL, INC.",REMOVE BASEMENT LAUNDRY AREA FLOOR TILE AND MASTIC,1000,f,2020-07-15,2020-07-31,JOE YAKUBISIN,t,f,2020-07-31,PAA,COMPLETE,40.4392556371139,-79.9587708715916
1752198,RES220018,RESIDENCE,108  BIRCH AVE,MILLVALE,15209,0,902,"AMERICAN CONTRACTING ENTERPRISES, INC.",REMOVE BASEMENT LAUNDRY ROOM FLOOR TILE,520,t,2022-03-02,2022-05-30,ELIZABETH LETURGEY,f,f,2022-05-30,RES,COMPLETE,40.5041299689262,-79.9731565488128
1752199,PAA230131,CARNEGIE MUSEUM OF NATURAL HISTORY,4400 FORBES AVENUE,PITTSBURGH,15213,901,903,"AMERICAN INDUSTRIAL CONTRACTING, INC.",REMOVE BASEMENT MUSIC HALL DUCT INSULATION,1300,,2023-03-16,2023-12-31,JOE YAKUBISIN,t,,,PAA,COMPLETE,40.4437064529995,-79.9491020730779
1752200,DEM220028,PA TURNPIKE COMMISSION PROPERTY PARCEL S008,305  MILLER RD,CLAIRTON,15025,0,921,GRAY WASTE MANAGEMENT CORPORATION,REMOVE BASEMENT PAAPER DUCT SEAM TAPE,5,f,2022-02-21,2023-02-20,CALI FEENEY,f,f,2023-02-20,DEM,COMPLETE,40.3134102510743,-79.9094734308054
1752201,DEM190288,VACANT RESIDENCE,2507  CLEVELAND ST,MCKEESPORT,15132,0,941,"PRISM RESPONSE, LLC DBA ALLOY",NO ACM FOUND.  DEMOLISH STRUCTURE AND GRADE THE LOT.,1000,f,2019-10-30,2019-12-31,MARC ITKIN,t,f,2019-12-31,DEM,COMPLETE,40.3357867610019,-79.832969019052
1752202,DEM190313,VACANT RESIDENCE,1252  RAVINE ST,MCKEESPORT,15132,0,941,"PRISM RESPONSE, LLC DBA ALLOY",NO ACM FOUND. DEMOLISH STRUCT AND GRADE LOT,900,f,2019-10-30,2019-12-31,MARC ITKIN,t,f,2019-12-31,DEM,COMPLETE,40.3442780995902,-79.8519454472635
1752203,DEM190319,VACANT RESIDENCE,1014  NEEL ST,WEST HOMESTEAD,15120,0,941,"PRISM RESPONSE, LLC DBA ALLOY",NO ACM FOUND. DEMOLISH STRUCT AND GRADE LOT,1312,f,2019-11-01,2019-12-31,MARC ITKIN,t,f,2019-12-31,DEM,COMPLETE,40.4024658916691,-79.913839859917
1752204,DEM200229,COMMERCIAL PROPERTY,2214 CENTRE AVE,PITTSBURGH,15219,0,920,GENERAL CONTRACTING CORP. OF AMERICA,NO ACM IDENTIFIED,,f,2019-06-20,2019-06-30,ELIZABETH LETURGEY,t,f,2019-06-30,DEM,COMPLETE,40.4452603639347,-79.9755735664994
1752205,DEM210182,CITY OF PITTSBURGH CONTROLLED PROPERTY,2514  WELLINGTON ST,PITTSBURGH,15203,0,920,GENERAL CONTRACTING CORP. OF AMERICA,NO ACM IDENTIFIED,,f,2021-10-29,2021-11-29,CALI FEENEY,t,f,2021-11-29,DEM,COMPLETE,40.4205284881095,-79.970874709886
1752206,DEM220065,MULTI UNIT ROW HOUSE,314  HARMAR ST,PITTSBURGH,15219,0,,,NO ACM IDENTIFIED,,f,2022-05-16,2022-06-16,ELIZABETH LETURGEY,f,f,2022-06-16,DEM,COMPLETE,40.4578457904178,-79.968334825604
1752207,DEM220066,MULTI UNIT ROWHOUSE,316  HARMAR ST,PITTSBURGH,15219,0,,,NO ACM IDENTIFIED,,f,2022-05-16,2022-06-16,ELIZABETH LETURGEY,f,f,2022-06-16,DEM,COMPLETE,40.4578004733857,-79.9682639522281
1752208,DEM220141,VACANT RESIDENCE,4509  NORTHERN PIKE,MONROEVILLE,15146,0,,,NO ACM IDENTIFIED,,f,2022-07-20,2023-07-19,DANIEL ZOLDOS,f,f,2023-07-19,DEM,COMPLETE,40.4316704285808,-79.735488404509
1752209,DEM220185,CITY OF PITTSBURGH REGULATED PROPERTY,2654  GLEN MAWR AVE,PITTSBURGH,15204,0,,,NO ACM IDENTIFIED,,f,2022-09-14,2023-09-13,DANIEL ZOLDOS,f,f,2023-09-13,DEM,COMPLETE,40.4530241543832,-80.0486940716238
1752210,PAA140340,CARLOW COMMONS - GRACE LIBRARY,3333 FIFTH AVE.,PITTSBURGH,15213,650,911,"MASA, LLC DBA CANFIELD DEVELOPMENT",FLOOR TILE/MASTIC ON 1ST - 5 FLOORS AND STAIR TREADS;WINDOW GLAZING ON 1ST - 5TH FLOOR;FIRE DOORS IN PENTHOUSE;MASONARY WALL/FIREPROOFING AND THERMAL INSULATION ON 1ST - 5TH FLOORS,161520,t,2014-08-11,2015-08-11,JOE YAKUBISIN,t,f,2015-08-11,PAA,COMPLETE,40.4392965271551,-79.9634127984317
1752211,PAA160455,,317  HELEN ST,MCKEES ROCKS,15136,350,937,TOM SIPES DEMOLITION COMPANY,FLOOR TILE/MASTIC ON 1ST FLOOR,900,f,2016-10-06,2016-10-12,JOE YAKUBISIN,t,f,2016-10-12,PAA,COMPLETE,40.4745064665301,-80.0577052992438
1752212,PAA160493,,432  ALEXANDER ST,MCKEES ROCKS,15136,150,937,TOM SIPES DEMOLITION COMPANY,FLOOR TILE/MASTIC ON 1ST FLOOR,160,f,2016-11-09,2016-11-30,JOE YAKUBISIN,t,f,2016-11-30,PAA,COMPLETE,40.4699063766777,-80.0608962115673
1752213,PAA140267,FOX CHAPEL PLAZA,1121 FREEPORT ROAD,PITTSBURGH,15238,650,901,"ABMECH ACQUISITIONS, LLC",FLOOR TILE/MASTIC ON 1ST FLOOR,1920,f,2014-06-30,2015-06-30,JOE YAKUBISIN,t,f,2015-06-30,PAA,COMPLETE,40.4882523141835,-79.8817399487698
1752214,PAA170119,CARNEGIE MUSEUM,4400  FORBES AVE,PITTSBURGH,15213,450,901,"ABMECH ACQUISITIONS, LLC",FLOOR TILE/MASTIC ON 1ST FLOOR PC- 1-5 ELECTRICAL VAULT,614,t,2017-03-01,2017-03-31,JOE YAKUBISIN,t,f,2017-03-31,PAA,COMPLETE,40.4437064529995,-79.9491020730779
1752215,PAA160186,JEFFERSON HOSPITAL,565 COAL VALLEY RD,JEFFERSON HILLS,15025,150,903,"AMERICAN INDUSTRIAL CONTRACTING, INC.",FLOOR TILE/MASTIC ON 1ST FLOOR SURGICAL SERVICES,650,t,2016-04-20,2016-05-30,JOE YAKUBISIN,t,f,2016-05-30,PAA,COMPLETE,40.3179030628942,-79.9336525202663
1752216,PAA170132,ALLEGHENY COUNTY HEALTH DEPARTMENT CLACK CENTER,3901 PENN AVE,PITTSBURGH,15224,150,911,"MASA, LLC DBA CANFIELD DEVELOPMENT",FLOOR TILE/MASTIC ON 1ST FLOOR VASTIBULE AND 2NS FLOOR,4064,t,2017-03-13,2017-08-11,JOE YAKUBISIN,t,f,2017-08-11,PAA,COMPLETE,40.465556298995,-79.9602944506386
1752217,PAA150509,,710 MONONGAHELA AVE.,GLASSPORT,15045,650,902,"AMERICAN CONTRACTING ENTERPRISES, INC.",FLOOR TILE/MASTIC ON 1ST FLOOR WORK AREA AND CAULKING ON WINDOWS/DOOR,1563,f,2015-10-21,2015-12-18,JOE YAKUBISIN,t,f,2015-12-18,PAA,COMPLETE,40.3239512328036,-79.8924675409712
1752218,PAA160362,WABTECH,1001 AIRBRAKE AVE,WILMERDING,15148,650,908,"BRISTOL ENVIRONMENTAL, INC.",FLOOR TILE/MASTIC ON 1ST FLOOR;ROOFING;GALBESTOS SIDING AND WINDOW CAULKING,1518,f,2016-08-16,2016-09-15,JOE YAKUBISIN,t,f,2016-08-31,PAA,COMPLETE,40.3952868728638,-79.8099860579413
1752219,PAA220098,DIRTY HARRY'S BICYCLES INC,730  ALLEGHENY RIVER BLVD,VERONA,15147,200,903,"AMERICAN INDUSTRIAL CONTRACTING, INC.",REMOVE BASEMENT PIPE & FITTING INSULATION,285,t,2022-02-16,2022-06-30,JOE YAKUBISIN,t,f,2022-06-30,PAA,COMPLETE,40.5057804217129,-79.8432516229942
1752220,PAA224496,FORMER BRENTWOOD MUNICIPAL BUILDING,3624 BROWNSVILLE RD,PITTSBURGH,15227,1850,902,"AMERICAN CONTRACTING ENTERPRISES, INC.",REMOVE BASEMENT PIPE FITTING INSULATION; BASEMENT MECHANICAL ROOM TANK INSULATION AND FLOOR TILE & MASTIC IN MULTIPLE ROOMS ON THE 1ST & 2ND FLOOR,11094,f,2022-11-01,2023-06-30,JOE YAKUBISIN,f,t,2022-12-31,PAA,EXPIRED,40.3732042771909,-79.9758256428136
1752221,RES200074,RESIDENCE,723 N BEATTY ST,PITTSBURGH,15206,0,922,"HEALTHY ENVIRONMENTS, LLC",REMOVE BASEMENT PIPE INSULATION,4,t,2021-01-04,2021-01-04,ELIZABETH LETURGEY,t,f,2021-01-04,RES,COMPLETE,40.4690979884523,-79.9229095763192
1752222,RES200034,RESIDENCE,1454  SHADY AVE,PITTSBURGH,15217,0,902,"AMERICAN CONTRACTING ENTERPRISES, INC.",REMOVE BASEMENT PIPE INSULATION,126,t,2020-06-30,2020-10-30,CALI FEENEY,t,f,2020-10-30,RES,COMPLETE,40.442248204667,-79.9204134621412
1752223,RES210079,RESIDENCE,6486  MONITOR ST,PITTSBURGH,15217,0,902,"AMERICAN CONTRACTING ENTERPRISES, INC.",REMOVE BASEMENT PIPE INSULATION,50,t,2021-09-07,2021-12-31,ELIZABETH LETURGEY,t,f,2021-12-31,RES,COMPLETE,40.425351407063,-79.9167598975188
1752224,PAA210450,COMMERCIAL PROPERTY,5138  PENN AVE,PITTSBURGH,15224,450,921,GRAY WASTE MANAGEMENT CORPORATION,REMOVE BASEMENT PIPE INSULATION AND FLOOR TILE MASTIC,335,t,2021-08-23,2022-08-22,JOE YAKUBISIN,t,f,2022-08-22,PAA,COMPLETE,40.4646508133413,-79.9413013651554
1752225,RES200019,RESIDENCE,745  RAVENSWOOD AVE,PITTSBURGH,15202,0,902,"AMERICAN CONTRACTING ENTERPRISES, INC.",REMOVE BASEMENT PIPE INSULATION AND HEAT SHIELD,65,t,2020-03-16,2020-05-29,CALI FEENEY,t,f,2020-05-29,RES,COMPLETE,40.50769559013,-80.0552827613645
1752226,DEM220139,MUNICIPALITY REGULATED PROPERTY,1006  ROSS AVE,PITTSBURGH,15221,0,921,GRAY WASTE MANAGEMENT CORPORATION,REMOVE BASEMENT PIPE INSULATION TAPE,100,f,2022-07-14,2023-07-13,AARON MAKATURA,f,f,2023-07-13,DEM,COMPLETE,40.4408151888267,-79.8795302757763
1752227,RES210067,RESIDENCE,1306 BEAVER RD,SEWICKLEY,15143,0,902,"AMERICAN CONTRACTING ENTERPRISES, INC.",REMOVE BASEMENT RAFTER INSULATION MATERIAL AND LIVING ROOM RADIATOR HEAT SHIELD,136,t,2021-06-29,2021-10-29,ELIZABETH LETURGEY,t,f,2021-10-29,RES,COMPLETE,40.5319149503294,-80.1702998368614
1752228,PAA150245,UNION RAILROAD,708 DUQUESNE BLVD.,DUQUESNE,15110,650,904,AVALOTIS CORPORATION,MASTIC COATING ON STRUCTURAL STEEL,1000,t,2015-05-26,2016-05-26,JOE YAKUBISIN,t,f,2016-05-26,PAA,COMPLETE,40.3819164780533,-79.8559694793887
1752229,PAA160222,911TH AIRLIFT WING BUILDING 10,2375 DEFENSE AVE,CORAOPOLIS,15108,650,903,"AMERICAN INDUSTRIAL CONTRACTING, INC.",MASTIC CONTAMINATED CARPET;FLOOR TILE;LAMINATE FLOORING AND INTERNAL BOILER,6340,f,2016-05-17,2016-06-30,JOE YAKUBISIN,t,f,2016-06-30,PAA,COMPLETE,40.492950952956,-80.2087403946172
1752230,PAA140317,,1100 SMALLMAN STREET,PITTSBURGH,15222,350,927,KEY ASBESTOS ABATEMENT INC,MASTIC IN BASEMENT;FLOOR TILE ON 2ND FLOOR UNDER SAFE AND COPING STONE CAULKING ON ROOF,542,t,2014-07-31,2014-08-31,JOE YAKUBISIN,t,f,2014-08-31,PAA,COMPLETE,40.4460104320077,-79.9935642362282
1752231,PAA150357,OLIVER CITY WIDE ACADEMY,2323 BRIGHTON ROAD,PITTSBURGH,15212,650,921,GRAY WASTE MANAGEMENT CORPORATION,MASTIC IN ROOM 117;FLOOR TILE/PLYWOOD IN ROOMS 117A;117B AND 176,1360,t,2015-07-14,2015-12-31,DON HORGAN,t,f,2015-12-31,PAA,COMPLETE,40.4644333876851,-80.0245010256813
1752232,PAA150494,RICHLAND MALL,5375 WILLIAM FLYNN HIGHWAY,GIBSONIA,15044,650,912,"CARL FRANK INDUSTRIES, INC.",MASTIC IN SHOE DEPT.SHOWROOM,5000,t,2015-10-16,2015-10-31,JOE YAKUBISIN,t,f,2015-10-31,PAA,COMPLETE,40.61963683133,-79.9465038071625
1752233,PAA160295,RIDGEPOINTE NURSING HOME,5301  BROWNSVILLE RD,PITTSBURGH,15236,650,929,"NOVA ENVIRONMENTAL SERVICES, INC.",MASTIC ON 1ST FLOOR NURSE'S STATION;2ND FLOORBUSNESS OFFICES/HALLWAY;1ST FLOOR MAINTENANCE/BOILER ROOM HALLWAY/TANK ROOM AND FLOOR TILE ON 1ST FLOOR ROOM 133 AND STAIRWELL A,30080,t,2016-06-29,2016-12-31,JOE YAKUBISIN,t,f,2016-12-31,PAA,COMPLETE,40.3415614495711,-79.9850886543505
1752234,PAA150311,UPMC - SCAIFE HALL,3550 TERRACE ST,PITTSBURGH,15261,300,940,"SPECTRUM ENVIRONMENTAL, LLC",MASTIC ON 2ND FLOOR STUDENT LOUNGE SECONDARY ROOM,515,t,2015-06-10,2015-08-30,DON HORGAN,t,f,2015-08-30,PAA,COMPLETE,40.4425805203367,-79.9617920984077
1752235,PAA150441,US STEEL - BTX FIRE PUMP STATION,400 STATE STREET,CLAIRTON,15025,650,904,AVALOTIS CORPORATION,MASTIC ON ROOF,1200,t,2015-09-03,2016-09-03,JOE YAKUBISIN,t,f,2016-09-03,PAA,COMPLETE,40.2940110111861,-79.8743163626466
1752236,PAA170379,MERCY HOSPITAL,1400 LOCUST ST,PITTSBURGH,15219,200,940,"SPECTRUM ENVIRONMENTAL, LLC",REMOVE & DISPOSE OF FLOOR TILE & MASTIC IN THE CLEAN LINEN ROOMS ON THE 2ND AND 11TH FLOORS.,710,t,2017-07-10,2018-07-03,JOE YAKUBISIN,t,f,2017-12-30,PAA,COMPLETE,40.4360439740714,-79.9854587006851
1752237,PAA140210,UNIVERSITY OF PITTSBURGH - DAVID LAWRENCE HALL,3942 FORBES AVE.,PITTSBURGH,15213,650,901,"ABMECH ACQUISITIONS, LLC",FLOOR TILE/MASTIC ON 1ST;2ND FLOORS;PLASTER CEILING IN AUDITORIUM ROOMS 120;121;114;117 AND PIPE INSULATION AND FITTINGS ABOVE CEILING ON 1ST AND 2ND FLOORS,20668,f,2014-05-19,2015-05-19,JOE YAKUBISIN,t,f,2015-05-19,PAA,COMPLETE,40.4424361153824,-79.9552429581966
1752238,PAA160093,VERIZON - WILKINSBURG,1026 HAYS STREET,PITTSBURGH,15221,650,908,"BRISTOL ENVIRONMENTAL, INC.",FLOOR TILE/MASTIC ON 2ND FLOOR,2200,t,2016-02-15,2016-02-26,JOE YAKUBISIN,t,f,2016-02-26,PAA,COMPLETE,40.444543710754,-79.8851549947809
1752239,PAA170206,POWER RECOVERY,7445 CHURCH ST,PITTSBURGH,15218,850,941,"PRISM RESPONSE, LLC DBA ALLOY",FLOOR TILE/MASTIC ON 2ND FLOOR COMMON AREA;REAR OFFICE AND HALL,1200,t,2017-05-08,2017-05-15,JOE YAKUBISIN,t,f,2017-05-15,PAA,COMPLETE,40.4227671641209,-79.8889057197719
1752240,PAA150484,UPMC - PRESBYTERIAN HOSPITAL,200 LOTHROP ST,PITTSBURGH,15213,650,940,"SPECTRUM ENVIRONMENTAL, LLC",FLOOR TILE/MASTIC ON 2ND FLOOR CTICU,1500,t,2015-10-15,2015-12-30,JOE YAKUBISIN,t,f,2015-12-30,PAA,COMPLETE,40.4422470230786,-79.9609286975283
1752241,PAA140285,SAINT SEBASTIAN SCHOOL,307 SIEBERT RD,PITTSBURGH,15237,150,902,"AMERICAN CONTRACTING ENTERPRISES, INC.",FLOOR TILE/MASTIC ON 2ND FLOOR HALLWAY;ROOM 207 ; 1ST FLOOR COPY ROOM;OFFICE AND BASEMENT STORAGE ROOM,240,t,2014-07-11,2014-12-31,JOE YAKUBISIN,t,f,2014-12-31,PAA,COMPLETE,40.5294171826697,-80.0106045875705
1752242,PAA140144,UPMC PASSAVANT,9100 BABCOCK BLVD,ALLISON PARK,15101,350,940,"SPECTRUM ENVIRONMENTAL, LLC",FLOOR TILE/MASTIC ON 2ND FLOOR ROOM 2103,550,t,2014-04-16,2014-12-30,JOE YAKUBISIN,t,f,2014-12-30,PAA,COMPLETE,,
1752243,PAA160206,WABTECH - BUILDING 16A,1001 AIRBRAKE AVE,WILMERDING,15148,650,908,"BRISTOL ENVIRONMENTAL, INC.",FLOOR TILE/MASTIC ON 2ND FLOOR;GALBESTOS SIDING;PIPE INSULATION UNDER BRIDGEWAY AND ROOFING,6130,f,2016-05-11,2016-06-01,JOE YAKUBISIN,t,f,2016-06-01,PAA,COMPLETE,40.3952868728638,-79.8099860579413
1752244,PAA150388,FOUR ALLEGHENY CENTER,4 ALLEGHENY CENTER,PITTSBURGH,15212,350,908,"BRISTOL ENVIRONMENTAL, INC.",FLOOR TILE/MASTIC ON 2ND;4TH;5TH AND 6TH FLOORS FREIGHT ELEVATOR LOBBIES,360,t,2015-08-10,2015-08-31,JOE YAKUBISIN,t,f,2015-08-31,PAA,COMPLETE,40.4531407950469,-80.0041573234823
1752245,PAA160355,CMU - BAKER HALL,5000 FORBES AVE,PITTSBURGH,15213,150,901,"ABMECH ACQUISITIONS, LLC",FLOOR TILE/MASTIC ON 3RD FLOOR,600,t,2016-08-02,2016-12-31,JOE YAKUBISIN,t,f,2016-12-31,PAA,COMPLETE,40.4442129846549,-79.94339909741
1752246,DEM220027,PA TURNPIKE COMMISSION PROPERTY PARCEL 5314,658  RIVERVIEW DR,DRAVOSBURG,15034,0,921,GRAY WASTE MANAGEMENT CORPORATION,REMOVE BASEMENT SEAM PAPER; LIVING ROOM PAPER DUCT WRAP AND EXTERIOR ALUMINUM SIDING CAULKING,116,f,2022-02-21,2023-02-20,CALI FEENEY,f,f,2023-02-20,DEM,COMPLETE,40.3574543881636,-79.8880903630734
1752247,PAA214372,PEAK CONSTRUCTION - 123 MOON ENLOW ROAD,,MOON,15108,450,935,SUPERIOR ENVIRONMENTAL CONTRACTING,REMOVE BASEMENT SHEET FLOORING; FLOOR TILE & MASTIC; LAUNDRY ROOM FLOOR TILE & MASTIC AND TRANSIT FLUE,602,f,2021-07-05,2021-12-29,JOE YAKUBISIN,t,f,2021-12-29,PAA,COMPLETE,40.5334912710076,-80.2713710636635
1752248,PAA220609,FORMER PNC BANK - 95 BLAZIER DRIVE,,PITTSBURGH,15237,850,902,"AMERICAN CONTRACTING ENTERPRISES, INC.",REMOVE BASEMENT SPRAY ON INSULATION & FLOOR TILE AND EXTERIOR CAULKING,1456,t,2022-12-30,2023-02-24,CALI FEENEY,t,f,2023-02-24,PAA,COMPLETE,40.5299208523154,-80.0427753290985
1752249,UND210100,VACANT RESIDENCE,339 W 11TH AVE,TARENTUM,15084,0,902,"AMERICAN CONTRACTING ENTERPRISES, INC.",REMOVE BASEMENT STAIR FLOOR TILE AND EXTERIOR DOOR AND WINDOWCAULK,72,f,2021-11-01,2021-12-31,ELIZABETH LETURGEY,t,f,2021-12-31,UND,COMPLETE,40.6066950751293,-79.7554217739326
1752250,UND220021,EDGEWORTH CLUB,511  EAST DR,SEWICKLEY,15143,0,971,"TRIFECTA TEAM, LLC",REMOVE BASEMENT TANK INSULATION,140,t,2022-03-31,2022-06-20,ELIZABETH LETURGEY,t,f,2022-06-20,UND,COMPLETE,40.5462075379152,-80.1878436223348
1752251,UND210083,ASPINWALL WATER TREATMENT PLANT,900 FREEPORT RD,BLAWNOX,15238,0,941,"PRISM RESPONSE, LLC DBA ALLOY",REMOVE BASEMENT TAR WRAP,55,t,2021-06-14,2021-10-31,ELIZABETH LETURGEY,t,f,2021-10-31,UND,COMPLETE,40.4861185015656,-79.8923529450752
1752252,UND210076,ROYAL MANOR,767  COLLEGE AVE,PITTSBURGH,15232,0,944,"NEUMEYER ENVIRONMENTAL SERVICESS, INC.",REMOVE BASEMENT WATER HEATER INSULATION,60,t,2021-08-09,2021-08-13,ELIZABETH LETURGEY,t,f,2021-08-13,UND,COMPLETE,40.4537704887658,-79.9268901000767
1752253,RES210001,VACANT RESIDENCE,1400  ADAMS ST,PITTSBURGH,15233,0,915,DJ DEMO COMPANY,REMOVE BATHROOM FLOOR TILE,60,t,2021-01-10,2021-01-11,MARC ITKIN,t,f,2021-01-11,RES,COMPLETE,40.4587227794128,-80.0279992669707
1752254,DEM220140,ABFN PARTNERSHIP,4515  NORTHERN PIKE,MONROEVILLE,15146,0,921,GRAY WASTE MANAGEMENT CORPORATION,REMOVE BATHROOM FLOOR TILE AND MASTIC,30,f,2022-07-20,2023-07-19,AARON MAKATURA,f,f,2023-07-19,DEM,COMPLETE,40.4310262216901,-79.7350289335716
1752255,PAA170527,10743 FRANKSWTOWN ROAD,10743  FRANKSTOWN RD,PITTSBURGH,15235,450,902,"AMERICAN CONTRACTING ENTERPRISES, INC.",REMOVE & DISPOSE OF FLOOR TILE IN BASEMENT; ON STAIRS & 2ND FLOOR.  REMOVE WINDOW CAULKING,410,f,2017-09-28,2017-10-27,JOE YAKUBISIN,t,f,2017-10-27,PAA,COMPLETE,40.4618749241186,-79.8409991744012
1752256,PAA170629,RESIDENCE 9 SHETLAND AVENUE,9  SHETLAND ST,PITTSBURGH,15206,200,917,DORE & ASSOCIATES,REMOVE & DISPOSE OF FLOOR TILE IN BEDROOM,210,f,2017-11-20,2017-11-30,SHANNON SANDBERG,t,f,2017-11-30,PAA,COMPLETE,40.4671911465101,-79.9128505783365
1752257,PAA170392,BABB; INC.,850  RIDGE AVE,PITTSBURGH,15212,450,902,"AMERICAN CONTRACTING ENTERPRISES, INC.",REMOVE & DISPOSE OF FLOOR TILE IN HALLWAY AND CLOSETS ON THE 1ST FLOOR,504,t,2017-07-25,2017-10-27,JOE YAKUBISIN,t,f,2017-10-27,PAA,COMPLETE,40.4504628270465,-80.0156783225413
1752258,PAA170623,RESIDENCE 619 N. DALLAS AVENUE,618 N DALLAS AVE,PITTSBURGH,15208,450,917,DORE & ASSOCIATES,REMOVE & DISPOSE OF FLOOR TILE IN KITCHEN; BATHROOM; CLOSET; & BASEMENT,420,f,2017-11-20,2017-12-30,SHANNON SANDBERG,t,f,2017-12-30,PAA,COMPLETE,40.4464774138441,-79.9116927004476
1752259,PAA170385,1919 EAST WASHINGTON STREET; CARNEGIE; PA 15106,1919 WASHINGTON ST,CARNEGIE,15106,450,902,"AMERICAN CONTRACTING ENTERPRISES, INC.",REMOVE & DISPOSE OF FLOOR TILE IN THE KITCHEN; MASTIC IN THE RESTROOM; COVE BASE IN THE KITCHEN; & TRANSITE VENT PIPE ON EXTERIOR WALL TO ROOF LINE,325,f,2017-07-18,2017-09-29,JOE YAKUBISIN,t,f,2017-09-29,PAA,COMPLETE,40.3880715590688,-80.089051075071
1752260,PAA170486,UPMC - PUH - 200 LOTHROP STREET,,PITTSBURGH,15232,200,928,NORTHSTAR CONTRACTING GROUP INC,REMOVE & DISPOSE OF FLOOR TILE/MASTIC IN MODEL ROOM F355,200,t,2017-09-10,2017-12-31,JOE YAKUBISIN,t,f,2017-12-31,PAA,COMPLETE,40.4551264365557,-79.9424815399024
1752261,PAA170356,PSU GREATER ALLEGHENY; FRABLE BUILDING #978-004,4000 UNIVERSITY DR,MCKEESPORT,15132,200,901,"ABMECH ACQUISITIONS, LLC",REMOVE & DISPOSE OF FLOOR TILE; MASTIC; & BASEBOARD ADHESIVE IN FOOMS 302; 3030; & 303A,1550,t,2017-06-26,2017-07-10,JOE YAKUBISIN,t,f,2017-07-10,PAA,COMPLETE,40.3444432854474,-79.8271792769242
1752262,PAA170344,US STEEL MON VALLEY WORKS - IRVIN PLANT - CURRY HOLLOW RD,,WEST MIFFLIN,15122,850,901,"ABMECH ACQUISITIONS, LLC",REMOVE & DISPOSE OF GALBESTOS ROOFING,7000,t,2017-06-26,2017-12-31,JOE YAKUBISIN,t,f,2017-12-31,PAA,COMPLETE,40.3412103879293,-79.954459425915
1752263,PAA170487,153 MILLS AVENUE; BRADDOCK; PA 15104,153  MILLS AVE,BRADDOCK,15104,450,921,GRAY WASTE MANAGEMENT CORPORATION,REMOVE & DISPOSE OF LINOLEUM IN KITCHEN; UPSTAIRS HALL CLOSET; FRONT ENTRY; VAT/MASTIC FROM BATHROOM/LAUNDRY ROOM; & DUCT TAPE/WRAP IN BASEMENT (FURNACE ROOM/WORKSHOP),300,f,2017-09-04,2017-12-31,JOE YAKUBISIN,t,f,2017-12-31,PAA,COMPLETE,40.4077733902215,-79.8719366338737
1752264,PAA150090,UPMC MUH,200 LOTHROP ST,PITTSBURGH,15213,200,928,NORTHSTAR CONTRACTING GROUP INC,FLOOR TILE/MASTIC ON 3RD FLOOR ROOM W327,280,t,2015-02-09,2015-02-12,JOE YAKUBISIN,t,f,2015-02-12,PAA,COMPLETE,40.4422470230786,-79.9609286975283
1752265,PAA160202,DUQUESNE TOWERS,,PITTSBURGH,15219,650,911,"MASA, LLC DBA CANFIELD DEVELOPMENT",FLOOR TILE/MASTIC ON 3RD;4TH AND 5TH FLOORS,33765,t,2016-05-09,2016-08-31,JOE YAKUBISIN,t,f,2016-08-31,PAA,COMPLETE,40.4430363971525,-80.0248548874816
1752266,PAA160525,NOVA PLACE - BUILDING 1,100 S COMMONS ST,PITTSBURGH,15212,150,941,"PRISM RESPONSE, LLC DBA ALLOY",FLOOR TILE/MASTIC ON 4TH FLOOR,25500,t,2016-11-23,2016-12-31,JOE YAKUBISIN,t,f,2016-12-31,PAA,COMPLETE,40.4510114242591,-80.0051923989784
1752267,PAA160219,BUILDING S-32 U.S. GOVERNMENT,101 SGT MESSERSCHMIDT RD,OAKDALE,15071,350,908,"BRISTOL ENVIRONMENTAL, INC.",FLOOR TILE/MASTIC ON 4TH FLOOR AND GLUE DOTS ON 3RD FLOOR,648,t,2016-05-16,2016-06-30,JOE YAKUBISIN,t,f,2016-06-30,PAA,COMPLETE,40.3988888004563,-80.1573206342
1752268,PAA150167,UPMC MERCY,1400 LOCUST STREET,PITTSBURGH,15219,650,928,NORTHSTAR CONTRACTING GROUP INC,FLOOR TILE/MASTIC ON 4TH FLOOR CORRIDORS AND ROOMS 4403;4457;4405;ROOF ON 4TH FLOOR;FLOOR TILE/MASTIC ON 2ND FLOOR ROOMS 2411;NEW LOCKER ROOM;DIETARY AND GLUE DOTS IN ROOM 2411,4035,t,2015-04-15,2015-12-30,JOE YAKUBISIN,t,f,2015-12-30,PAA,COMPLETE,40.4360439740714,-79.9854587006851
1752269,PAA150272,UPMC MCKEESPORT HOSPITAL - MANSFIELD BUILDING,1500 FIFTH AVE.,MCKEESPORT,15132,650,940,"SPECTRUM ENVIRONMENTAL, LLC",FLOOR TILE/MASTIC ON 5TH FLOOR SELECT CORRIDORS AND PATIENT ROOMS,13000,t,2015-06-08,2015-12-30,DON HORGAN,t,f,2015-12-30,PAA,COMPLETE,40.3513577942261,-79.8498321945279
1752270,PAA140451,FOUR GATEWAY CENTER,444 LIBERTY AVE.,PITTSBURGH,15222,650,940,"SPECTRUM ENVIRONMENTAL, LLC",FLOOR TILE/MASTIC ON 8TH FLOOR LOBBY,1100,t,2014-11-14,2014-11-17,JOE YAKUBISIN,t,f,2014-11-17,PAA,COMPLETE,40.4408772146024,-80.0046972771664
1752271,PAA170090,UPMC MONTEFIORE - 3459 FIFTH AVE,,PITTSBURGH,15232,850,940,"SPECTRUM ENVIRONMENTAL, LLC",FLOOR TILE/MASTIC ON 8TH FLOOR PHASES 2 THROUGH 7,9833,t,2017-02-27,2018-02-27,JOE YAKUBISIN,t,t,2017-12-31,PAA,COMPLETE,40.4551264365557,-79.9424815399024
1752272,PAA160264,UPMC SHADYSIDE? HOSPITAL,5230 CENTRE AVE,PITTSBURGH,15232,350,940,"SPECTRUM ENVIRONMENTAL, LLC",FLOOR TILE/MASTIC ON GROUND FLOOR WOMEN'S ROOM,700,t,2016-06-01,2016-12-30,JOE YAKUBISIN,t,f,2016-12-30,PAA,COMPLETE,40.4546642584153,-79.9395872787866
1752273,PAA150055,UNION TRUST BUILDING,501 GRANT STREET,PITTSBURGH,15219,650,908,"BRISTOL ENVIRONMENTAL, INC.",FLOOR TILE/MASTIC ON MEZZANINE,3200,t,2015-01-19,2015-02-28,JOE YAKUBISIN,t,f,2015-02-28,PAA,COMPLETE,40.4399495171312,-79.9970354982139
1752274,PAA150390,OLYMPIA SHOPPING CENTER,4313 WALNUT ST,MCKEESPORT,15132,650,927,KEY ASBESTOS ABATEMENT INC,FLOOR TILE/MASTIC SPACE 34 AND 35 - OLYMPIA BEER,1875,t,2015-08-07,2015-09-30,JOE YAKUBISIN,t,f,2015-08-31,PAA,COMPLETE,40.3220295379364,-79.835830778461
1752275,PAA160529,EAST LIBERTY GARDENS BUILDING 2,1  IPSWICH CT,PITTSBURGH,15206,650,902,"AMERICAN CONTRACTING ENTERPRISES, INC.",FLOOR TILE/MASTIC THROUGHOUT,5738,f,2016-12-05,2017-12-04,JOE YAKUBISIN,t,t,2016-12-31,PAA,COMPLETE,,
1752276,PAA160530,EAST LIBERTY GARDENS BUILDING 3,2  GILFORD CT,PITTSBURGH,15206,650,902,"AMERICAN CONTRACTING ENTERPRISES, INC.",FLOOR TILE/MASTIC THROUGHOUT,5436,f,2016-12-05,2017-12-04,JOE YAKUBISIN,t,t,2016-12-31,PAA,COMPLETE,,
1752277,PAA160537,EAST LIBERTY GARDENS BUILDING 10,2  BLANFORD CT,PITTSBURGH,15206,650,902,"AMERICAN CONTRACTING ENTERPRISES, INC.",FLOOR TILE/MASTIC THROUGHOUT,3430,f,2016-12-05,2017-12-04,JOE YAKUBISIN,t,t,2016-12-31,PAA,COMPLETE,,
1752278,PAA160538,EAST LIBERTY GARDENS BUILDING 11,1  DUDLEY CT,PITTSBURGH,15206,650,902,"AMERICAN CONTRACTING ENTERPRISES, INC.",FLOOR TILE/MASTIC THROUGHOUT,3630,f,2016-12-05,2017-12-04,JOE YAKUBISIN,t,t,2016-12-31,PAA,COMPLETE,,
1752279,PAA170194,BETTIS ATOMIC POWER LABORATORY,814 PITTSBURGH MCKEESPORT BLVD,WEST MIFFLIN,15122,850,940,"SPECTRUM ENVIRONMENTAL, LLC",FLOOR TILE/MASTIC THROUGHOUT 1ST/2ND FLOORS/STAIRWELLS;JOINT COMPOUND IN 1ST FLOOR BATHROOM;WINDOW CAULKING ON 1ST/2ND FLOORS;WINDOW GLAZING ON 1ST/2ND FLOORS AND EXTERIOR VENT;PIPE FITTING WEST STAIRWELL/EXTENSION;GASKET;ROOFING;PANELS SOUTH WALL,58104,t,2017-04-10,2018-04-09,JOE YAKUBISIN,t,f,2018-04-09,PAA,COMPLETE,40.3572354645406,-79.8991410934409
1752280,PAA140241,GOODWILL STORE,1306 PITTSBURGH ST,CHESWICK,15024,650,902,"AMERICAN CONTRACTING ENTERPRISES, INC.",FLOOR TILE/MASTIC THROUGHOUT BUILDING,11000,t,2014-06-16,2014-06-30,JOE YAKUBISIN,t,f,2014-06-30,PAA,COMPLETE,40.540294083453,-79.8019112107698
